{"name":"E_HYDRANT_WGS84","type":"FeatureCollection"
,"features":[
{"type":"Feature","geometry":{"type":"Point","coordinates":[-0.456416195278144,47.5068423916005,0]},"properties":{"GID":101,"NPOMPIER":"15","TYPE":"PI","DIAMETRE":"100","CONFORM":"O","ADRESSE":"Ldt Long Champ","COMMUNE":"SAINT-SYLVAIN D ANJOU","DATEMES":"20060630000000","PRESSION":0,"DEBIT":79,"NOMVOIE":"Longchamp ","EXPLOIT":"ANGERS LOIRE METROPOLE","VERIF":"SDIS"}}
,{"type":"Feature","geometry":{"type":"Point","coordinates":[-0.571124586297475,47.4735356832687,0]},"properties":{"GID":102,"NPOMPIER":"23","TYPE":"PI","DIAMETRE":"100","CONFORM":"O","ADRESSE":"Rue St Jacques Impasse Tournemine","COMMUNE":"ANGERS","DATEMES":"20060630000000","PRESSION":0,"DEBIT":127,"NOMVOIE":"Rue Brault","EXPLOIT":"ANGERS LOIRE METROPOLE","VERIF":"SDIS"}}
,{"type":"Feature","geometry":{"type":"Point","coordinates":[-0.564749499809562,47.4782676417726,0]},"properties":{"GID":103,"NPOMPIER":"5","TYPE":"PI","DIAMETRE":"100","CONFORM":"O","ADRESSE":"Place du Dr Bichon angle rue Lionnaise","COMMUNE":"ANGERS","DATEMES":"20060630000000","PRESSION":0,"DEBIT":115,"NOMVOIE":"Place du docteur Bichon","EXPLOIT":"ANGERS LOIRE METROPOLE","VERIF":"SDIS"}}
,{"type":"Feature","geometry":{"type":"Point","coordinates":[-0.588991465349901,47.4745737531129,0]},"properties":{"GID":104,"NPOMPIER":"117","TYPE":"PI","DIAMETRE":"100","CONFORM":"O","ADRESSE":"Sq Maximilien Bastard prox sq gal Sikorski","COMMUNE":"ANGERS","DATEMES":"20060630000000","PRESSION":0,"DEBIT":117,"NOMVOIE":"Square Maximilien Bastard","EXPLOIT":"ANGERS LOIRE METROPOLE","VERIF":"SDIS"}}
,{"type":"Feature","geometry":{"type":"Point","coordinates":[-0.495528275876745,47.4627856992615,0]},"properties":{"GID":105,"NPOMPIER":"30","TYPE":"PI","DIAMETRE":"100","CONFORM":"O","ADRESSE":"Rue de L'Aubepine Face rue des Rosiers","COMMUNE":"SAINT-BARTHELEMY D ANJOU","DATEMES":"20060701000000","PRESSION":0,"DEBIT":111,"NOMVOIE":"Rue de l' Aubépine","EXPLOIT":"ANGERS LOIRE METROPOLE","VERIF":"SDIS"}}
,{"type":"Feature","geometry":{"type":"Point","coordinates":[-0.596862373112582,47.4659789812503,0]},"properties":{"GID":106,"NPOMPIER":"238","TYPE":"PI","DIAMETRE":"100","CONFORM":"O","ADRESSE":"Rue de Chambre aux Deniers face acces No 18 a No 24","COMMUNE":"ANGERS","DATEMES":"20060630000000","PRESSION":0,"DEBIT":150,"NOMVOIE":"Rue de la Chambre aux Deniers","EXPLOIT":"ANGERS LOIRE METROPOLE","VERIF":"SDIS"}}
,{"type":"Feature","geometry":{"type":"Point","coordinates":[-0.532174261923827,47.4520699205028]},"properties":{"GID":107,"NPOMPIER":"20","TYPE":"PI","DIAMETRE":"100","CONFORM":"O","ADRESSE":"Rue des Mortiers angle square Mortiers","COMMUNE":"ANGERS","DATEMES":"20060630000000","PRESSION":0,"DEBIT":165,"NOMVOIE":"Square des Mortiers","EXPLOIT":"ANGERS LOIRE METROPOLE","VERIF":"SDIS"}}
,{"type":"Feature","geometry":{"type":"Point","coordinates":[-0.468461117296853,47.451587125548]},"properties":{"GID":108,"NPOMPIER":"43","TYPE":"PI","DIAMETRE":"100","CONFORM":"O","ADRESSE":"Rue de la Pepiniere Face No 99","COMMUNE":"TRELAZE","DATEMES":"20110301000000","PRESSION":null,"DEBIT":82,"NOMVOIE":"Rue de la Pépinière","EXPLOIT":"ANGERS LOIRE METROPOLE","VERIF":"SDIS"}}
,{"type":"Feature","geometry":{"type":"Point","coordinates":[-0.502872796990197,47.4867971028827,0]},"properties":{"GID":109,"NPOMPIER":"113","TYPE":"PI","DIAMETRE":"100","CONFORM":"O","ADRESSE":"Rue de la Claverie Angle Rue de la Pignonniere","COMMUNE":"SAINT-BARTHELEMY D ANJOU","DATEMES":"20060701000000","PRESSION":0,"DEBIT":136,"NOMVOIE":"Rue de la Pignonière","EXPLOIT":"ANGERS LOIRE METROPOLE","VERIF":"SDIS"}}
,{"type":"Feature","geometry":{"type":"Point","coordinates":[-0.594741399502978,47.5075117399164]},"properties":{"GID":110,"NPOMPIER":"56","TYPE":"PI","DIAMETRE":"100","CONFORM":"O","ADRESSE":"Ave du onze Novembre angle av Louis Michel Loyau","COMMUNE":"AVRILLE","DATEMES":"20060629000000","PRESSION":0,"DEBIT":133,"NOMVOIE":"Avenue du Onze Novembre 1918","EXPLOIT":"ANGERS LOIRE METROPOLE","VERIF":"SDIS"}}
,{"type":"Feature","geometry":{"type":"Point","coordinates":[-0.530143707746003,47.45272397274]},"properties":{"GID":111,"NPOMPIER":"902","TYPE":"PI","DIAMETRE":"100","CONFORM":"O","ADRESSE":"Rue de Pise face rue de Galilee","COMMUNE":"ANGERS","DATEMES":"20060630000000","PRESSION":0,"DEBIT":126,"NOMVOIE":"Rue de Pise","EXPLOIT":"ANGERS LOIRE METROPOLE","VERIF":"SDIS"}}
,{"type":"Feature","geometry":{"type":"Point","coordinates":[-0.603812782935313,47.4629992115251,0]},"properties":{"GID":112,"NPOMPIER":"246","TYPE":"PI","DIAMETRE":"100","CONFORM":"O","ADRESSE":"Sq de Beauvau No 12","COMMUNE":"ANGERS","DATEMES":"20060630000000","PRESSION":0,"DEBIT":99,"NOMVOIE":"Square de Beauvau","EXPLOIT":"ANGERS LOIRE METROPOLE","VERIF":"SDIS"}}
,{"type":"Feature","geometry":{"type":"Point","coordinates":[-0.377142321196139,47.5002462564017,0]},"properties":{"GID":113,"NPOMPIER":"3","TYPE":"PI","DIAMETRE":"100","CONFORM":"O","ADRESSE":"Rue des Moulins No 36bis","COMMUNE":"SARRIGNE","DATEMES":"20060630000000","PRESSION":4,"DEBIT":55,"NOMVOIE":"Rue des Moulins","EXPLOIT":"ANGERS LOIRE METROPOLE","VERIF":"ALM"}}
,{"type":"Feature","geometry":{"type":"Point","coordinates":[-0.474160207673856,47.5225348180012,0]},"properties":{"GID":114,"NPOMPIER":"31","TYPE":"PI","DIAMETRE":"100","CONFORM":"O","ADRESSE":"Rue de la Garenne Face Allee des Ormeaux","COMMUNE":"SAINT-SYLVAIN D ANJOU","DATEMES":"20060630000000","PRESSION":0,"DEBIT":97,"NOMVOIE":"Rue de la Garenne","EXPLOIT":"ANGERS LOIRE METROPOLE","VERIF":"SDIS"}}
,{"type":"Feature","geometry":{"type":"Point","coordinates":[-0.570230180790024,47.4489252422462]},"properties":{"GID":115,"NPOMPIER":"750","TYPE":"PI","DIAMETRE":"100","CONFORM":"O","ADRESSE":"Rue de la Tourlandry face rue des Ailleries","COMMUNE":"ANGERS","DATEMES":"20060630000000","PRESSION":0,"DEBIT":87,"NOMVOIE":"Rue de la Tour Landry","EXPLOIT":"ANGERS LOIRE METROPOLE","VERIF":"SDIS"}}
,{"type":"Feature","geometry":{"type":"Point","coordinates":[-0.500528373097369,47.4445569212516]},"properties":{"GID":116,"NPOMPIER":"30","TYPE":"PI","DIAMETRE":"100","CONFORM":"O","ADRESSE":"Rue Jean Jaures Angle Voie Cite Beatrice","COMMUNE":"TRELAZE","DATEMES":"20110301000000","PRESSION":0,"DEBIT":132,"NOMVOIE":"Rue Jean Jaurès","EXPLOIT":"ANGERS LOIRE METROPOLE","VERIF":"SDIS"}}
,{"type":"Feature","geometry":{"type":"Point","coordinates":[-0.511215547190542,47.4570972368031]},"properties":{"GID":117,"NPOMPIER":"81","TYPE":"PI","DIAMETRE":"100","CONFORM":"O","ADRESSE":"Rue des Perreyeux Angle Zone du Cormier","COMMUNE":"TRELAZE","DATEMES":"20110501000000","PRESSION":0,"DEBIT":137,"NOMVOIE":"Rue de la Martinellerie","EXPLOIT":"ANGERS LOIRE METROPOLE","VERIF":"SDIS"}}
,{"type":"Feature","geometry":{"type":"Point","coordinates":[-0.609571111789115,47.4221786383415]},"properties":{"GID":2801,"NPOMPIER":"50","TYPE":"PI","DIAMETRE":"100","CONFORM":null,"ADRESSE":null,"COMMUNE":"BOUCHEMAINE","DATEMES":null,"PRESSION":null,"DEBIT":null,"NOMVOIE":"Place de l'Abbé Thomas","EXPLOIT":"ANGERS LOIRE METROPOLE","VERIF":null}}
,{"type":"Feature","geometry":{"type":"Point","coordinates":[-0.565169622328162,47.4470165508637]},"properties":{"GID":119,"NPOMPIER":"761","TYPE":"PI","DIAMETRE":"100","CONFORM":"O","ADRESSE":"Rue Leon Blum No 13","COMMUNE":"ANGERS","DATEMES":"20060701000000","PRESSION":0,"DEBIT":90,"NOMVOIE":"Rue Léon Blum","EXPLOIT":"ANGERS LOIRE METROPOLE","VERIF":"SDIS"}}
,{"type":"Feature","geometry":{"type":"Point","coordinates":[-0.570155838047277,47.483706728318]},"properties":{"GID":120,"NPOMPIER":"371","TYPE":"PI","DIAMETRE":"100","CONFORM":"O","ADRESSE":"Avenue Rene Gasnier No 66","COMMUNE":"ANGERS","DATEMES":"20060630000000","PRESSION":0,"DEBIT":74,"NOMVOIE":"Avenue René Gasnier","EXPLOIT":"ANGERS LOIRE METROPOLE","VERIF":"SDIS"}}
,{"type":"Feature","geometry":{"type":"Point","coordinates":[-0.592598240856766,47.5023430559641]},"properties":{"GID":121,"NPOMPIER":"33","TYPE":"PI","DIAMETRE":"100","CONFORM":"O","ADRESSE":"Rue de la Nouette angle av du General De Gaulle","COMMUNE":"AVRILLE","DATEMES":"20060629000000","PRESSION":0,"DEBIT":135,"NOMVOIE":"Rue de la Nouette","EXPLOIT":"ANGERS LOIRE METROPOLE","VERIF":"SDIS"}}
,{"type":"Feature","geometry":{"type":"Point","coordinates":[-0.490058713038102,47.4977880355523,0]},"properties":{"GID":122,"NPOMPIER":"82","TYPE":"PI","DIAMETRE":"100","CONFORM":"O","ADRESSE":"Lieu dit Le Clos Dore","COMMUNE":"SAINT-SYLVAIN D ANJOU","DATEMES":"20060630000000","PRESSION":0,"DEBIT":98,"NOMVOIE":"La Poularderie","EXPLOIT":"ANGERS LOIRE METROPOLE","VERIF":"SDIS"}}
,{"type":"Feature","geometry":{"type":"Point","coordinates":[-0.533482394072228,47.4803763691097]},"properties":{"GID":123,"NPOMPIER":"439","TYPE":"PI","DIAMETRE":"100","CONFORM":"O","ADRESSE":"ZAC Desjardins","COMMUNE":"ANGERS","DATEMES":"20120921000000","PRESSION":2.9,"DEBIT":116,"NOMVOIE":null,"EXPLOIT":"ANGERS LOIRE METROPOLE","VERIF":"ALM"}}
,{"type":"Feature","geometry":{"type":"Point","coordinates":[-0.544720176731673,47.4519739619136]},"properties":{"GID":124,"NPOMPIER":"522","TYPE":"PI","DIAMETRE":"100","CONFORM":"O","ADRESSE":"Bd Bedier angle rue d'Orgemont","COMMUNE":"ANGERS","DATEMES":"20060630000000","PRESSION":0,"DEBIT":142,"NOMVOIE":"Boulevard Joseph Bédier","EXPLOIT":"ANGERS LOIRE METROPOLE","VERIF":"SDIS"}}
,{"type":"Feature","geometry":{"type":"Point","coordinates":[-0.622973526990596,47.4651082819974,0]},"properties":{"GID":125,"NPOMPIER":"65","TYPE":"PI","DIAMETRE":"100","CONFORM":"O","ADRESSE":"Avenue de la Fontaine 50 m rue Souanerie","COMMUNE":"BEAUCOUZE","DATEMES":"20060701000000","PRESSION":0,"DEBIT":150,"NOMVOIE":"Avenue de la Fontaine","EXPLOIT":"ANGERS LOIRE METROPOLE","VERIF":"SDIS"}}
,{"type":"Feature","geometry":{"type":"Point","coordinates":[-0.596827591333431,47.4595783862578]},"properties":{"GID":126,"NPOMPIER":"153","TYPE":"PI","DIAMETRE":"100","CONFORM":"O","ADRESSE":"Av Du Lac de Maine face Chemin de la Papillaie","COMMUNE":"ANGERS","DATEMES":"20060630000000","PRESSION":0,"DEBIT":100,"NOMVOIE":"Avenue du Lac de Maine","EXPLOIT":"ANGERS LOIRE METROPOLE","VERIF":"SDIS"}}
,{"type":"Feature","geometry":{"type":"Point","coordinates":[-0.623520280533569,47.5397758167545]},"properties":{"GID":127,"NPOMPIER":"123","TYPE":"PI","DIAMETRE":"100","CONFORM":null,"ADRESSE":"Lotissement Val de Montreuil","COMMUNE":"MONTREUIL JUIGNE","DATEMES":null,"PRESSION":null,"DEBIT":null,"NOMVOIE":null,"EXPLOIT":"ANGERS LOIRE METROPOLE","VERIF":"X"}}
,{"type":"Feature","geometry":{"type":"Point","coordinates":[-0.508784652345189,47.456006853706]},"properties":{"GID":128,"NPOMPIER":"2","TYPE":"PI","DIAMETRE":"100","CONFORM":"O","ADRESSE":"Rue Louis Amstrong Pignon de Maison","COMMUNE":"TRELAZE","DATEMES":"20110301000000","PRESSION":0,"DEBIT":114,"NOMVOIE":"Rue Louis Armstrong","EXPLOIT":"ANGERS LOIRE METROPOLE","VERIF":"SDIS"}}
,{"type":"Feature","geometry":{"type":"Point","coordinates":[-0.546505670178763,47.4680859631144]},"properties":{"GID":129,"NPOMPIER":"186","TYPE":"PI","DIAMETRE":"100","CONFORM":"O","ADRESSE":"Rue Desjardins angle rue Hanneloup","COMMUNE":"ANGERS","DATEMES":"20060630000000","PRESSION":0,"DEBIT":92,"NOMVOIE":"Rue Desjardins","EXPLOIT":"ANGERS LOIRE METROPOLE","VERIF":"SDIS"}}
,{"type":"Feature","geometry":{"type":"Point","coordinates":[-0.430405508799875,47.5574124034071]},"properties":{"GID":2,"NPOMPIER":"4","TYPE":"PI","DIAMETRE":"100","CONFORM":"O","ADRESSE":"Chemin de la Fenaison","COMMUNE":"VILLEVEQUE","DATEMES":"20060701000000","PRESSION":0,"DEBIT":85,"NOMVOIE":"Chemin des Fenaisons","EXPLOIT":"VEOLIA","VERIF":"SDIS"}}
,{"type":"Feature","geometry":{"type":"Point","coordinates":[-0.555839753470962,47.4876042792483]},"properties":{"GID":3,"NPOMPIER":"331","TYPE":"PI","DIAMETRE":"100","CONFORM":"O","ADRESSE":"Sq des Capucins No 22","COMMUNE":"ANGERS","DATEMES":"20120901000000","PRESSION":3,"DEBIT":61,"NOMVOIE":"Square des Capucins","EXPLOIT":"ANGERS LOIRE METROPOLE","VERIF":"ALM"}}
,{"type":"Feature","geometry":{"type":"Point","coordinates":[-0.524962116300242,47.4232631888518,0]},"properties":{"GID":6,"NPOMPIER":"4","TYPE":"PI","DIAMETRE":"100","CONFORM":"O","ADRESSE":"Rue Rouget de l'Isle","COMMUNE":"LES PONTS DE CE","DATEMES":"20060630000000","PRESSION":0,"DEBIT":105,"NOMVOIE":"Rue  Rouget de l'Isle","EXPLOIT":"ANGERS LOIRE METROPOLE","VERIF":"SDIS"}}
,{"type":"Feature","geometry":{"type":"Point","coordinates":[-0.570698723367475,47.4866246827024,0]},"properties":{"GID":8,"NPOMPIER":"934","TYPE":"PI","DIAMETRE":"100","CONFORM":"O","ADRESSE":"Sq Charles Lindbergh face au No 2","COMMUNE":"ANGERS","DATEMES":"20060701000000","PRESSION":2,"DEBIT":57,"NOMVOIE":"Square Charles Lindbergh","EXPLOIT":"ANGERS LOIRE METROPOLE","VERIF":"ALM"}}
,{"type":"Feature","geometry":{"type":"Point","coordinates":[-0.57370390534699,47.4808911288516,0]},"properties":{"GID":9,"NPOMPIER":"268","TYPE":"PI","DIAMETRE":"100","CONFORM":"O","ADRESSE":"Rue de la Meignanne angle rue Jacques Calot","COMMUNE":"ANGERS","DATEMES":"20060630000000","PRESSION":2.9,"DEBIT":65,"NOMVOIE":"Rue de la Meignanne","EXPLOIT":"ANGERS LOIRE METROPOLE","VERIF":"ALM"}}
,{"type":"Feature","geometry":{"type":"Point","coordinates":[-0.540290308803476,47.4885765531348,0]},"properties":{"GID":10,"NPOMPIER":"17","TYPE":"PI","DIAMETRE":"100","CONFORM":"O","ADRESSE":"Rue N.Appert angle acces parking C.C","COMMUNE":"ANGERS","DATEMES":"20060630000000","PRESSION":0,"DEBIT":194,"NOMVOIE":"Rue Nicolas Appert","EXPLOIT":"ANGERS LOIRE METROPOLE","VERIF":"SDIS"}}
,{"type":"Feature","geometry":{"type":"Point","coordinates":[-0.52455969858476,47.5240745291926]},"properties":{"GID":11,"NPOMPIER":"83","TYPE":"PI","DIAMETRE":"100","CONFORM":"O","ADRESSE":"Rue de l'Ile Saint Aubin","COMMUNE":"ECOUFLANT","DATEMES":"20060630000000","PRESSION":6,"DEBIT":100,"NOMVOIE":"Rue de Île Saint-Aubin","EXPLOIT":"ANGERS LOIRE METROPOLE","VERIF":"ALM"}}
,{"type":"Feature","geometry":{"type":"Point","coordinates":[-0.480440800722501,47.4627898272737,0]},"properties":{"GID":12,"NPOMPIER":"126","TYPE":"PI","DIAMETRE":"100","CONFORM":"O","ADRESSE":"Av de la Morliere 50 m de la rue H. Berlioz","COMMUNE":"SAINT-BARTHELEMY D ANJOU","DATEMES":"20060701000000","PRESSION":0,"DEBIT":91,"NOMVOIE":"Avenue de la Morlière","EXPLOIT":"ANGERS LOIRE METROPOLE","VERIF":"SDIS"}}
,{"type":"Feature","geometry":{"type":"Point","coordinates":[-0.655912500183313,47.4719654206964,0]},"properties":{"GID":13,"NPOMPIER":"39","TYPE":"PI","DIAMETRE":"100","CONFORM":"O","ADRESSE":"Lieu dit la Grande Houssaie face a la ferme","COMMUNE":"BEAUCOUZE","DATEMES":"20060701000000","PRESSION":0,"DEBIT":80,"NOMVOIE":"Chemin de la Houssaie","EXPLOIT":"ANGERS LOIRE METROPOLE","VERIF":"SDIS"}}
,{"type":"Feature","geometry":{"type":"Point","coordinates":[-0.499315812518354,47.496862419986]},"properties":{"GID":14,"NPOMPIER":"87","TYPE":"PI","DIAMETRE":"100","CONFORM":"O","ADRESSE":"CD Cinquante Deux Entree Parc Expositions","COMMUNE":"ECOUFLANT","DATEMES":"20060625000000","PRESSION":0,"DEBIT":73,"NOMVOIE":null,"EXPLOIT":"ANGERS LOIRE METROPOLE","VERIF":"SDIS"}}
,{"type":"Feature","geometry":{"type":"Point","coordinates":[-0.480012173804878,47.481391656484,0]},"properties":{"GID":15,"NPOMPIER":"83","TYPE":"PI","DIAMETRE":"100","CONFORM":"O","ADRESSE":"VC No 11 Ldt le Fournil Intersection Face Calvaire","COMMUNE":"SAINT-BARTHELEMY D ANJOU","DATEMES":"20060701000000","PRESSION":0,"DEBIT":179,"NOMVOIE":"La Morellerie","EXPLOIT":"ANGERS LOIRE METROPOLE","VERIF":"SDIS"}}
,{"type":"Feature","geometry":{"type":"Point","coordinates":[-0.548128883002885,47.4510721723964]},"properties":{"GID":16,"NPOMPIER":"526","TYPE":"PI","DIAMETRE":"100","CONFORM":"O","ADRESSE":"Bd Bedier No 48","COMMUNE":"ANGERS","DATEMES":"20060630000000","PRESSION":0,"DEBIT":136,"NOMVOIE":"Boulevard Joseph Bédier","EXPLOIT":"ANGERS LOIRE METROPOLE","VERIF":"SDIS"}}
,{"type":"Feature","geometry":{"type":"Point","coordinates":[-0.530805644822294,47.4025421278459]},"properties":{"GID":17,"NPOMPIER":"8","TYPE":"PI","DIAMETRE":"100","CONFORM":"N","ADRESSE":"Avenue des Maronniers angle Avenue des Chardons","COMMUNE":"MURS-ERIGNE","DATEMES":"20060701000000","PRESSION":0,"DEBIT":40,"NOMVOIE":"Boulevard  Chardon","EXPLOIT":"VEOLIA","VERIF":"SDIS"}}
,{"type":"Feature","geometry":{"type":"Point","coordinates":[-0.47635025385724,47.4439356753662]},"properties":{"GID":18,"NPOMPIER":"79","TYPE":"PI","DIAMETRE":"100","CONFORM":"O","ADRESSE":"Rue Ferdinand Vest devant les Ateliers Relais","COMMUNE":"TRELAZE","DATEMES":"20110201000000","PRESSION":0,"DEBIT":140,"NOMVOIE":"Rue Ferdinand Vest","EXPLOIT":"ANGERS LOIRE METROPOLE","VERIF":"SDIS"}}
,{"type":"Feature","geometry":{"type":"Point","coordinates":[-0.520359776088778,47.4027067292376]},"properties":{"GID":20,"NPOMPIER":"39","TYPE":"PI","DIAMETRE":"100","CONFORM":"N","ADRESSE":"Rue de la Tremblaye milieu du Lotissement","COMMUNE":"MURS-ERIGNE","DATEMES":"20060701000000","PRESSION":0,"DEBIT":49,"NOMVOIE":"Rue de la Tremblaye","EXPLOIT":"VEOLIA","VERIF":"SDIS"}}
,{"type":"Feature","geometry":{"type":"Point","coordinates":[-0.547271852394034,47.4700412608161]},"properties":{"GID":21,"NPOMPIER":"176","TYPE":"PI","DIAMETRE":"100","CONFORM":"O","ADRESSE":"Place Lorraine face a la Tour","COMMUNE":"ANGERS","DATEMES":"20060701000000","PRESSION":3,"DEBIT":130,"NOMVOIE":"Place de Lorraine","EXPLOIT":"ANGERS LOIRE METROPOLE","VERIF":"ALM"}}
,{"type":"Feature","geometry":{"type":"Point","coordinates":[-0.611559083284288,47.4255639082376,0]},"properties":{"GID":22,"NPOMPIER":"66","TYPE":"PI","DIAMETRE":"100","CONFORM":"O","ADRESSE":"Rue de la Bayotiere angle Allee Tambourneries","COMMUNE":"BOUCHEMAINE","DATEMES":"20060630000000","PRESSION":0,"DEBIT":147,"NOMVOIE":"Rue de la Bayotière","EXPLOIT":"ANGERS LOIRE METROPOLE","VERIF":"SDIS"}}
,{"type":"Feature","geometry":{"type":"Point","coordinates":[-0.6323566133191,47.4796587977662,0]},"properties":{"GID":23,"NPOMPIER":"105","TYPE":"PI","DIAMETRE":"100","CONFORM":"O","ADRESSE":"Avenue des Achats","COMMUNE":"BEAUCOUZE","DATEMES":"20060701000000","PRESSION":6,"DEBIT":129,"NOMVOIE":"La Ragotterie","EXPLOIT":"ANGERS LOIRE METROPOLE","VERIF":"SDIS"}}
,{"type":"Feature","geometry":{"type":"Point","coordinates":[-0.557890127619863,47.4690009558004]},"properties":{"GID":24,"NPOMPIER":"100","TYPE":"PI","DIAMETRE":"100","CONFORM":"O","ADRESSE":"Place du President Kennedy angle Impasse Toussaint","COMMUNE":"ANGERS","DATEMES":"20060701000000","PRESSION":0,"DEBIT":112,"NOMVOIE":"Place du président Kennedy","EXPLOIT":"ANGERS LOIRE METROPOLE","VERIF":"SDIS"}}
,{"type":"Feature","geometry":{"type":"Point","coordinates":[-0.52768355591694,47.4713661539845]},"properties":{"GID":25,"NPOMPIER":"1095","TYPE":"PI","DIAMETRE":"100","CONFORM":"O","ADRESSE":"Rue Larevellière,face au n°142","COMMUNE":"ANGERS","DATEMES":"20060630000000","PRESSION":4,"DEBIT":185,"NOMVOIE":"Rue Larévellière","EXPLOIT":"ANGERS LOIRE METROPOLE","VERIF":"ALM"}}
,{"type":"Feature","geometry":{"type":"Point","coordinates":[-0.42871289873598,47.4997802655603,0]},"properties":{"GID":26,"NPOMPIER":"25","TYPE":"PI","DIAMETRE":"100","CONFORM":"O","ADRESSE":"Rue d Helminthie angle rue du logis N.D","COMMUNE":"LE PLESSIS GRAMMOIRE","DATEMES":"20060630000000","PRESSION":0,"DEBIT":99,"NOMVOIE":"Rue d' Helminthie","EXPLOIT":"ANGERS LOIRE METROPOLE","VERIF":"SDIS"}}
,{"type":"Feature","geometry":{"type":"Point","coordinates":[-0.637156549491659,47.4760765186816,0]},"properties":{"GID":27,"NPOMPIER":"51","TYPE":"PI","DIAMETRE":"100","CONFORM":"O","ADRESSE":"Rue du Calvaire Cezarderie","COMMUNE":"BEAUCOUZE","DATEMES":"20060701000000","PRESSION":0,"DEBIT":140,"NOMVOIE":"Rue du Calvaire","EXPLOIT":"ANGERS LOIRE METROPOLE","VERIF":"SDIS"}}
,{"type":"Feature","geometry":{"type":"Point","coordinates":[-0.571996017469458,47.4800593950846,0]},"properties":{"GID":28,"NPOMPIER":"1018","TYPE":"PI","DIAMETRE":"100","CONFORM":"O","ADRESSE":"Rue de la Meignanne face Cimetiere","COMMUNE":"ANGERS","DATEMES":"20060630000000","PRESSION":0,"DEBIT":67,"NOMVOIE":"Rue de la Meignanne","EXPLOIT":"ANGERS LOIRE METROPOLE","VERIF":"SDIS"}}
,{"type":"Feature","geometry":{"type":"Point","coordinates":[-0.450789764794105,47.5265644317297,0]},"properties":{"GID":29,"NPOMPIER":"24","TYPE":"PI","DIAMETRE":"100","CONFORM":"N","ADRESSE":"Rue du Bocage face au n°45","COMMUNE":"PELLOUAILLES LES VIGNES","DATEMES":"20060701000000","PRESSION":4,"DEBIT":56,"NOMVOIE":"Rue du Bocage","EXPLOIT":"ANGERS LOIRE METROPOLE","VERIF":"ALM"}}
,{"type":"Feature","geometry":{"type":"Point","coordinates":[-0.599531486026,47.4788584166739,0]},"properties":{"GID":30,"NPOMPIER":"202","TYPE":"PI","DIAMETRE":"100","CONFORM":"O","ADRESSE":"Bd Lavoisier prox Residence Universitaire","COMMUNE":"ANGERS","DATEMES":"20060630000000","PRESSION":0,"DEBIT":103,"NOMVOIE":"Boulevard de Lavoisier","EXPLOIT":"ANGERS LOIRE METROPOLE","VERIF":"SDIS"}}
,{"type":"Feature","geometry":{"type":"Point","coordinates":[-0.588906089344625,47.5074139260768,0]},"properties":{"GID":31,"NPOMPIER":"103","TYPE":"PI","DIAMETRE":"100","CONFORM":"O","ADRESSE":"Avenue de la Petite Garde angle chemin de la Petite Garde","COMMUNE":"AVRILLE","DATEMES":"20060629000000","PRESSION":0,"DEBIT":101,"NOMVOIE":"Chemin de la Petite Garde","EXPLOIT":"ANGERS LOIRE METROPOLE","VERIF":"SDIS"}}
,{"type":"Feature","geometry":{"type":"Point","coordinates":[-0.518772186389867,47.5033446694277,0]},"properties":{"GID":32,"NPOMPIER":"17","TYPE":"PI","DIAMETRE":"100","CONFORM":"O","ADRESSE":"Allee au Poirier Entee Rastello","COMMUNE":"ECOUFLANT","DATEMES":"20060701000000","PRESSION":0,"DEBIT":120,"NOMVOIE":"Allée au Poirier","EXPLOIT":"ANGERS LOIRE METROPOLE","VERIF":"SDIS"}}
,{"type":"Feature","geometry":{"type":"Point","coordinates":[-0.678343117393914,47.4859325788274,0]},"properties":{"GID":33,"NPOMPIER":"5","TYPE":"PI","DIAMETRE":"100","CONFORM":"O","ADRESSE":"Rue Auguste Renoir (face au no 24)","COMMUNE":"SAINT-LAMBERT LA POTHERIE","DATEMES":"20060701000000","PRESSION":0,"DEBIT":92,"NOMVOIE":"Rue Auguste Renoir","EXPLOIT":"ANGERS LOIRE METROPOLE","VERIF":"SDIS"}}
,{"type":"Feature","geometry":{"type":"Point","coordinates":[-0.614883359000165,47.4182893223848,0]},"properties":{"GID":323,"NPOMPIER":"91","TYPE":"PI","DIAMETRE":"100","CONFORM":"O","ADRESSE":"Rue des Sablons","COMMUNE":"BOUCHEMAINE","DATEMES":"20060630000000","PRESSION":3,"DEBIT":94,"NOMVOIE":"La Cochonnerie","EXPLOIT":"ANGERS LOIRE METROPOLE","VERIF":"ALM"}}
,{"type":"Feature","geometry":{"type":"Point","coordinates":[-0.561617024953039,47.4480254104394]},"properties":{"GID":324,"NPOMPIER":"949","TYPE":"PI","DIAMETRE":"100","CONFORM":"O","ADRESSE":"Sq Winston Churchill angle rue Andre Maurois","COMMUNE":"ANGERS","DATEMES":"20060630000000","PRESSION":0,"DEBIT":160,"NOMVOIE":"Square Winston Churchill","EXPLOIT":"ANGERS LOIRE METROPOLE","VERIF":"SDIS"}}
,{"type":"Feature","geometry":{"type":"Point","coordinates":[-0.586846072473604,47.5084914119237,0]},"properties":{"GID":325,"NPOMPIER":"74","TYPE":"PI","DIAMETRE":"100","CONFORM":"O","ADRESSE":"Avenue Pablo Nerudda face chemin des Vignes","COMMUNE":"AVRILLE","DATEMES":"20060629000000","PRESSION":0,"DEBIT":120,"NOMVOIE":"Avenue Pablo Neruda","EXPLOIT":"ANGERS LOIRE METROPOLE","VERIF":"SDIS"}}
,{"type":"Feature","geometry":{"type":"Point","coordinates":[-0.675334787528202,47.5419521321933,0]},"properties":{"GID":326,"NPOMPIER":"11","TYPE":"PI","DIAMETRE":"200","CONFORM":"O","ADRESSE":"Chemin du Tour de Bois, face rue Beaumont","COMMUNE":"LE PLESSIS MACE","DATEMES":"20060701000000","PRESSION":3.2,"DEBIT":80,"NOMVOIE":"Chemin du Tour du Bois","EXPLOIT":"ANGERS LOIRE METROPOLE","VERIF":"ALM"}}
,{"type":"Feature","geometry":{"type":"Point","coordinates":[-0.523723710305179,47.4627636303051]},"properties":{"GID":328,"NPOMPIER":"1054","TYPE":"PI","DIAMETRE":"100","CONFORM":"O","ADRESSE":"Rue Charles Péguy face n°44","COMMUNE":"ANGERS","DATEMES":"20060630000000","PRESSION":0,"DEBIT":68,"NOMVOIE":"Rue Charles Péguy","EXPLOIT":"ANGERS LOIRE METROPOLE","VERIF":"SDIS"}}
,{"type":"Feature","geometry":{"type":"Point","coordinates":[-0.554608968195834,47.4482596627609]},"properties":{"GID":329,"NPOMPIER":"737","TYPE":"PI","DIAMETRE":"100","CONFORM":"O","ADRESSE":"Rue de Salpinte angle rue Marcel Pagnol","COMMUNE":"ANGERS","DATEMES":"20060630000000","PRESSION":0,"DEBIT":124,"NOMVOIE":"Rue de Salpinte","EXPLOIT":"ANGERS LOIRE METROPOLE","VERIF":"SDIS"}}
,{"type":"Feature","geometry":{"type":"Point","coordinates":[-0.568666701300539,47.4453019164854]},"properties":{"GID":35,"NPOMPIER":"765","TYPE":"PI","DIAMETRE":"100","CONFORM":"O","ADRESSE":"Rue de la Corne angle rue du Pied Moisi","COMMUNE":"ANGERS","DATEMES":"20060701000000","PRESSION":0,"DEBIT":98,"NOMVOIE":"Rue de la Corne","EXPLOIT":"ANGERS LOIRE METROPOLE","VERIF":"SDIS"}}
,{"type":"Feature","geometry":{"type":"Point","coordinates":[-0.57471499661697,47.4834435078976,0]},"properties":{"GID":36,"NPOMPIER":"366","TYPE":"PI","DIAMETRE":"100","CONFORM":"O","ADRESSE":"Chemin des Gouronnieres angle rue Andre Gide","COMMUNE":"ANGERS","DATEMES":"20060630000000","PRESSION":0,"DEBIT":64,"NOMVOIE":null,"EXPLOIT":"ANGERS LOIRE METROPOLE","VERIF":"SDIS"}}
,{"type":"Feature","geometry":{"type":"Point","coordinates":[-0.593310644326339,47.5066673465108]},"properties":{"GID":37,"NPOMPIER":"57","TYPE":"PI","DIAMETRE":"100","CONFORM":"O","ADRESSE":"Av du Onze Novembre angle rue Alexandre Chiron","COMMUNE":"AVRILLE","DATEMES":"20060629000000","PRESSION":0,"DEBIT":166,"NOMVOIE":"Avenue du Onze Novembre 1918","EXPLOIT":"ANGERS LOIRE METROPOLE","VERIF":"SDIS"}}
,{"type":"Feature","geometry":{"type":"Point","coordinates":[-0.568740525236896,47.4803327495936]},"properties":{"GID":38,"NPOMPIER":"373","TYPE":"PI","DIAMETRE":"100","CONFORM":"O","ADRESSE":"Rue de la Traquette face No 18","COMMUNE":"ANGERS","DATEMES":"20060630000000","PRESSION":0,"DEBIT":76,"NOMVOIE":"Rue de la Traquette","EXPLOIT":"ANGERS LOIRE METROPOLE","VERIF":"SDIS"}}
,{"type":"Feature","geometry":{"type":"Point","coordinates":[-0.672363759301812,47.5605796916952]},"properties":{"GID":39,"NPOMPIER":"13","TYPE":"PI","DIAMETRE":"100","CONFORM":"O","ADRESSE":"Route Nationale, face a la boulangerie","COMMUNE":"LA MEMBROLLE SUR LONGUENEE","DATEMES":"20060626000000","PRESSION":0,"DEBIT":80,"NOMVOIE":"Rue Charles de Gaulle","EXPLOIT":"ANGERS LOIRE METROPOLE","VERIF":"SDIS"}}
,{"type":"Feature","geometry":{"type":"Point","coordinates":[-0.522268180032609,47.3656459438433]},"properties":{"GID":40,"NPOMPIER":"6","TYPE":"PI","DIAMETRE":"100","CONFORM":"O","ADRESSE":"Rue du Prunelier angle rue des Charmilles","COMMUNE":"SOULAINES SUR AUBANCE","DATEMES":"20110401000000","PRESSION":6.19999980926514,"DEBIT":72,"NOMVOIE":"Rue du Preunellier","EXPLOIT":"VEOLIA","VERIF":null}}
,{"type":"Feature","geometry":{"type":"Point","coordinates":[-0.608131560354857,47.505590536654,0]},"properties":{"GID":41,"NPOMPIER":"47","TYPE":"PI","DIAMETRE":"100","CONFORM":"O","ADRESSE":"Allee Rene Daumal face Allee F Chopin","COMMUNE":"AVRILLE","DATEMES":"20060629000000","PRESSION":0,"DEBIT":159,"NOMVOIE":"Avenue Salvador Allende","EXPLOIT":"ANGERS LOIRE METROPOLE","VERIF":"SDIS"}}
,{"type":"Feature","geometry":{"type":"Point","coordinates":[-0.495152464135588,47.4926751120139,0]},"properties":{"GID":42,"NPOMPIER":"72","TYPE":"PI","DIAMETRE":"100","CONFORM":"O","ADRESSE":"Ltd la Gabeterie angle de l'impasse","COMMUNE":"SAINT-SYLVAIN D ANJOU","DATEMES":"20060630000000","PRESSION":0,"DEBIT":125,"NOMVOIE":null,"EXPLOIT":"ANGERS LOIRE METROPOLE","VERIF":"SDIS"}}
,{"type":"Feature","geometry":{"type":"Point","coordinates":[-0.526979073698293,47.4404098557313]},"properties":{"GID":43,"NPOMPIER":"96","TYPE":"PI","DIAMETRE":"100","CONFORM":"O","ADRESSE":"Av de L'Europe Salle de Sports","COMMUNE":"LES PONTS DE CE","DATEMES":"20060630000000","PRESSION":0,"DEBIT":67,"NOMVOIE":"Avenue de l' Europe","EXPLOIT":"ANGERS LOIRE METROPOLE","VERIF":"SDIS"}}
,{"type":"Feature","geometry":{"type":"Point","coordinates":[-0.516916111787177,47.4733150715099]},"properties":{"GID":44,"NPOMPIER":"812","TYPE":"PI","DIAMETRE":"100","CONFORM":"O","ADRESSE":"Rue des Chesnaies angle Gustave Flaubert","COMMUNE":"ANGERS","DATEMES":"20060630000000","PRESSION":0,"DEBIT":79,"NOMVOIE":"Rue des Chesnaies","EXPLOIT":"ANGERS LOIRE METROPOLE","VERIF":"SDIS"}}
,{"type":"Feature","geometry":{"type":"Point","coordinates":[-0.558477392103137,47.4475426575236]},"properties":{"GID":45,"NPOMPIER":"739","TYPE":"PI","DIAMETRE":"100","CONFORM":"O","ADRESSE":"Rue Jean Pallach face No 5","COMMUNE":"ANGERS","DATEMES":"20060630000000","PRESSION":0,"DEBIT":149,"NOMVOIE":"Rue Jan Pallach","EXPLOIT":"ANGERS LOIRE METROPOLE","VERIF":"SDIS"}}
,{"type":"Feature","geometry":{"type":"Point","coordinates":[-0.524850858333853,47.4805943243978,0]},"properties":{"GID":46,"NPOMPIER":"590","TYPE":"PI","DIAMETRE":"100","CONFORM":"O","ADRESSE":"Av Pasteur angle rue des Camelias","COMMUNE":"ANGERS","DATEMES":"20060701000000","PRESSION":0,"DEBIT":65,"NOMVOIE":"Avenue Pasteur","EXPLOIT":"ANGERS LOIRE METROPOLE","VERIF":"SDIS"}}
,{"type":"Feature","geometry":{"type":"Point","coordinates":[-0.670495032642213,47.3986318140121]},"properties":{"GID":47,"NPOMPIER":"8","TYPE":"PI","DIAMETRE":"100","CONFORM":"O","ADRESSE":"Prox. Pte et Gde Doubleniere","COMMUNE":"SAVENNIERES","DATEMES":"20060701000000","PRESSION":0,"DEBIT":80,"NOMVOIE":null,"EXPLOIT":"ANGERS LOIRE METROPOLE","VERIF":"SDIS"}}
,{"type":"Feature","geometry":{"type":"Point","coordinates":[-0.65787388475413,47.382784625202,0]},"properties":{"GID":48,"NPOMPIER":"21","TYPE":"BI","DIAMETRE":"100","CONFORM":null,"ADRESSE":"Rue Monsallier","COMMUNE":"SAVENNIERES","DATEMES":"20001231000000","PRESSION":0,"DEBIT":0,"NOMVOIE":"Rue  Monsallier","EXPLOIT":"ANGERS LOIRE METROPOLE","VERIF":"X"}}
,{"type":"Feature","geometry":{"type":"Point","coordinates":[-0.596612568997587,47.4479530798097]},"properties":{"GID":49,"NPOMPIER":"38","TYPE":"PI","DIAMETRE":"100","CONFORM":"O","ADRESSE":"Rue du pont de Pruniers face rue Eperviere","COMMUNE":"BOUCHEMAINE","DATEMES":"20060630000000","PRESSION":0,"DEBIT":103,"NOMVOIE":"Rue du Pont de Pruniers","EXPLOIT":"ANGERS LOIRE METROPOLE","VERIF":"SDIS"}}
,{"type":"Feature","geometry":{"type":"Point","coordinates":[-0.615069048244532,47.4441721361833,0]},"properties":{"GID":50,"NPOMPIER":"18","TYPE":"PI","DIAMETRE":"100","CONFORM":"O","ADRESSE":"Rue des Galles No 1","COMMUNE":"BOUCHEMAINE","DATEMES":"20060630000000","PRESSION":0,"DEBIT":158,"NOMVOIE":"Rue des Galles","EXPLOIT":"ANGERS LOIRE METROPOLE","VERIF":"SDIS"}}
,{"type":"Feature","geometry":{"type":"Point","coordinates":[-0.526866597119654,47.4902911923189]},"properties":{"GID":51,"NPOMPIER":"555","TYPE":"PI","DIAMETRE":"100","CONFORM":"O","ADRESSE":"Bd Robert Shumann face rue Gabriel Baron","COMMUNE":"ANGERS","DATEMES":"20060630000000","PRESSION":0,"DEBIT":98,"NOMVOIE":"Boulevard Robert Schuman","EXPLOIT":"ANGERS LOIRE METROPOLE","VERIF":"SDIS"}}
,{"type":"Feature","geometry":{"type":"Point","coordinates":[-0.613764779964481,47.4696508099561,0]},"properties":{"GID":52,"NPOMPIER":"60","TYPE":"PI","DIAMETRE":"100","CONFORM":"O","ADRESSE":"Av. Paul Guilhem proximite Av. Atlantique","COMMUNE":"BEAUCOUZE","DATEMES":"20060702000000","PRESSION":6,"DEBIT":287,"NOMVOIE":"Avenue Paul Prosper Guilhem","EXPLOIT":"ANGERS LOIRE METROPOLE","VERIF":"ALM"}}
,{"type":"Feature","geometry":{"type":"Point","coordinates":[-0.561065586108496,47.4780414899117]},"properties":{"GID":53,"NPOMPIER":"44","TYPE":"PI","DIAMETRE":"100","CONFORM":"N","ADRESSE":"Rue de l'Hommeau angle rue H. Legludic","COMMUNE":"ANGERS","DATEMES":"20120601000000","PRESSION":3,"DEBIT":40,"NOMVOIE":"Rue de l' Hommeau","EXPLOIT":"ANGERS LOIRE METROPOLE","VERIF":"ALM"}}
,{"type":"Feature","geometry":{"type":"Point","coordinates":[-0.51825230276627,47.4465232159076,0]},"properties":{"GID":54,"NPOMPIER":"59","TYPE":"PI","DIAMETRE":"100","CONFORM":"O","ADRESSE":"Rue Halope Freres au Droit du Poste E.D.F","COMMUNE":"LES PONTS DE CE","DATEMES":"20060630000000","PRESSION":0,"DEBIT":81,"NOMVOIE":"Chemin de la Monnaie","EXPLOIT":"ANGERS LOIRE METROPOLE","VERIF":"SDIS"}}
,{"type":"Feature","geometry":{"type":"Point","coordinates":[-0.513597019101045,47.4806809358797,0]},"properties":{"GID":55,"NPOMPIER":"602","TYPE":"PI","DIAMETRE":"100","CONFORM":"O","ADRESSE":"Rue Maurice Geslin angle Sq.Maurice Geslin","COMMUNE":"ANGERS","DATEMES":"20060701000000","PRESSION":4,"DEBIT":164,"NOMVOIE":"Rue Maurice Geslin","EXPLOIT":"ANGERS LOIRE METROPOLE","VERIF":"ALM"}}
,{"type":"Feature","geometry":{"type":"Point","coordinates":[-0.484536240383268,47.4623370138366,0]},"properties":{"GID":56,"NPOMPIER":"45","TYPE":"PI","DIAMETRE":"100","CONFORM":"O","ADRESSE":"Rue du Pressoir No 46","COMMUNE":"SAINT-BARTHELEMY D ANJOU","DATEMES":"20060701000000","PRESSION":0,"DEBIT":84,"NOMVOIE":"Rue du Pressoir","EXPLOIT":"ANGERS LOIRE METROPOLE","VERIF":"SDIS"}}
,{"type":"Feature","geometry":{"type":"Point","coordinates":[-0.667488152983479,47.5557811251406,0]},"properties":{"GID":57,"NPOMPIER":"3","TYPE":"PI","DIAMETRE":"100","CONFORM":"O","ADRESSE":"Rue J. Cocteau","COMMUNE":"LA MEMBROLLE SUR LONGUENEE","DATEMES":"20060626000000","PRESSION":0,"DEBIT":100,"NOMVOIE":"Rue Marcel Pagnol","EXPLOIT":"ANGERS LOIRE METROPOLE","VERIF":"SDIS"}}
,{"type":"Feature","geometry":{"type":"Point","coordinates":[-0.540694675809093,47.444688371341]},"properties":{"GID":58,"NPOMPIER":"545","TYPE":"PI","DIAMETRE":"100","CONFORM":"O","ADRESSE":"Rue du Chateau d'Orgemont devant Polyclinique","COMMUNE":"ANGERS","DATEMES":"20060630000000","PRESSION":0,"DEBIT":82,"NOMVOIE":"Rue du Château d'Orgemont","EXPLOIT":"ANGERS LOIRE METROPOLE","VERIF":"SDIS"}}
,{"type":"Feature","geometry":{"type":"Point","coordinates":[-0.574618040716604,47.4853662991077]},"properties":{"GID":59,"NPOMPIER":"265","TYPE":"PI","DIAMETRE":"100","CONFORM":"O","ADRESSE":"Rue Andre Gide angle Jean Cocteau","COMMUNE":"ANGERS","DATEMES":"20120901000000","PRESSION":2,"DEBIT":81,"NOMVOIE":"Rue André Gide","EXPLOIT":"ANGERS LOIRE METROPOLE","VERIF":"ALM"}}
,{"type":"Feature","geometry":{"type":"Point","coordinates":[-0.552795660148816,47.470585084531]},"properties":{"GID":61,"NPOMPIER":"86","TYPE":"PI","DIAMETRE":"100","CONFORM":"O","ADRESSE":"Rue L. Romain No 2","COMMUNE":"ANGERS","DATEMES":"20060630000000","PRESSION":0,"DEBIT":115,"NOMVOIE":"Rue Louis de Romain","EXPLOIT":"ANGERS LOIRE METROPOLE","VERIF":"SDIS"}}
,{"type":"Feature","geometry":{"type":"Point","coordinates":[-0.482679360095256,47.4442691394148]},"properties":{"GID":62,"NPOMPIER":"68","TYPE":"PI","DIAMETRE":"100","CONFORM":"O","ADRESSE":"Rue Ambroise Croizat a Proximite du No 30","COMMUNE":"TRELAZE","DATEMES":"20110201000000","PRESSION":0,"DEBIT":90,"NOMVOIE":"Rue Ambroise Croizat","EXPLOIT":"ANGERS LOIRE METROPOLE","VERIF":"SDIS"}}
,{"type":"Feature","geometry":{"type":"Point","coordinates":[-0.61499354682397,47.5121517227285]},"properties":{"GID":63,"NPOMPIER":"162","TYPE":"PI","DIAMETRE":"100","CONFORM":"O","ADRESSE":"Les LANDES II","COMMUNE":"AVRILLE","DATEMES":"20060701000000","PRESSION":6,"DEBIT":109,"NOMVOIE":null,"EXPLOIT":"ANGERS LOIRE METROPOLE","VERIF":"ALM"}}
,{"type":"Feature","geometry":{"type":"Point","coordinates":[-0.527605745819741,47.480122491715]},"properties":{"GID":64,"NPOMPIER":"422","TYPE":"PI","DIAMETRE":"100","CONFORM":"O","ADRESSE":"Bd Allonneau angle rue Richard Duvernay","COMMUNE":"ANGERS","DATEMES":"20060701000000","PRESSION":0,"DEBIT":70,"NOMVOIE":"Rue Richard Duvernay","EXPLOIT":"ANGERS LOIRE METROPOLE","VERIF":"SDIS"}}
,{"type":"Feature","geometry":{"type":"Point","coordinates":[-0.615852115106171,47.4470058263389]},"properties":{"GID":3281,"NPOMPIER":"102","TYPE":"PI","DIAMETRE":"100","CONFORM":null,"ADRESSE":null,"COMMUNE":"BOUCHEMAINE","DATEMES":"20111219000000","PRESSION":6,"DEBIT":135,"NOMVOIE":"Rue des Reinettes","EXPLOIT":"ANGERS LOIRE METROPOLE","VERIF":null}}
,{"type":"Feature","geometry":{"type":"Point","coordinates":[-0.613000038715281,47.4510286902484]},"properties":{"GID":3462,"NPOMPIER":"103","TYPE":"PI","DIAMETRE":"100","CONFORM":"O","ADRESSE":null,"COMMUNE":"BOUCHEMAINE","DATEMES":"20111219000000","PRESSION":5.5,"DEBIT":112,"NOMVOIE":null,"EXPLOIT":"ANGERS LOIRE METROPOLE","VERIF":null}}
,{"type":"Feature","geometry":{"type":"Point","coordinates":[-0.450695617469097,47.5368590770917,0]},"properties":{"GID":66,"NPOMPIER":"5","TYPE":"PI","DIAMETRE":"70","CONFORM":"N","ADRESSE":"Ldt Funault Chemin Rural No 5","COMMUNE":"PELLOUAILLES LES VIGNES","DATEMES":"20060701000000","PRESSION":0,"DEBIT":20,"NOMVOIE":"Village de Funault","EXPLOIT":"ANGERS LOIRE METROPOLE","VERIF":"SDIS"}}
,{"type":"Feature","geometry":{"type":"Point","coordinates":[-0.699188728198773,47.4686188222808]},"properties":{"GID":67,"NPOMPIER":"20","TYPE":"PI","DIAMETRE":"100","CONFORM":"O","ADRESSE":"P.A.C. de l'atlantique","COMMUNE":"SAINT-LEGER DES BOIS","DATEMES":"20060702000000","PRESSION":0,"DEBIT":60,"NOMVOIE":"Les Landes","EXPLOIT":"ANGERS LOIRE METROPOLE","VERIF":"ALM"}}
,{"type":"Feature","geometry":{"type":"Point","coordinates":[-0.532444217749725,47.4866869829161]},"properties":{"GID":68,"NPOMPIER":"401","TYPE":"PI","DIAMETRE":"100","CONFORM":"O","ADRESSE":"Bd du Marechal Gallieni angle Rte de Briollay","COMMUNE":"ANGERS","DATEMES":"20060630000000","PRESSION":0,"DEBIT":79,"NOMVOIE":"Boulevard du maréchal Gallieni","EXPLOIT":"ANGERS LOIRE METROPOLE","VERIF":"SDIS"}}
,{"type":"Feature","geometry":{"type":"Point","coordinates":[-0.594811274575203,47.5100722672315,0]},"properties":{"GID":69,"NPOMPIER":"83","TYPE":"PI","DIAMETRE":"100","CONFORM":"O","ADRESSE":"Chemin des Landes angle allee Boris Vian","COMMUNE":"AVRILLE","DATEMES":"20060701000000","PRESSION":0,"DEBIT":96,"NOMVOIE":"Allée Boris Vian","EXPLOIT":"ANGERS LOIRE METROPOLE","VERIF":"SDIS"}}
,{"type":"Feature","geometry":{"type":"Point","coordinates":[-0.589745110674897,47.512037643484,0]},"properties":{"GID":70,"NPOMPIER":"81","TYPE":"PI","DIAMETRE":"100","CONFORM":"O","ADRESSE":"Rue Paul Eluard angle av Claude Debussy","COMMUNE":"AVRILLE","DATEMES":"20060701000000","PRESSION":0,"DEBIT":130,"NOMVOIE":"Avenue Claude Debussy","EXPLOIT":"ANGERS LOIRE METROPOLE","VERIF":"SDIS"}}
,{"type":"Feature","geometry":{"type":"Point","coordinates":[-0.51126160632575,47.4658218415019]},"properties":{"GID":71,"NPOMPIER":"162","TYPE":"PI","DIAMETRE":"100","CONFORM":"O","ADRESSE":"ZAC Cordelles","COMMUNE":"SAINT-BARTHELEMY D ANJOU","DATEMES":"20130301000000","PRESSION":3,"DEBIT":90,"NOMVOIE":null,"EXPLOIT":"ANGERS LOIRE METROPOLE","VERIF":"ALM"}}
,{"type":"Feature","geometry":{"type":"Point","coordinates":[-0.56470097122592,47.4746264036884,0]},"properties":{"GID":72,"NPOMPIER":"19","TYPE":"PI","DIAMETRE":"100","CONFORM":"O","ADRESSE":"Rue Veille St Nicolas angle rue de la Penitentes","COMMUNE":"ANGERS","DATEMES":"20060630000000","PRESSION":0,"DEBIT":150,"NOMVOIE":"Rue Saint-Nicolas","EXPLOIT":"ANGERS LOIRE METROPOLE","VERIF":"SDIS"}}
,{"type":"Feature","geometry":{"type":"Point","coordinates":[-0.552960610448124,47.4462537682894]},"properties":{"GID":74,"NPOMPIER":"736","TYPE":"PI","DIAMETRE":"100","CONFORM":"O","ADRESSE":"Rue du Grand Douzille prox. No 166","COMMUNE":"ANGERS","DATEMES":"20060630000000","PRESSION":0,"DEBIT":144,"NOMVOIE":"Rue du grand Douzillé","EXPLOIT":"ANGERS LOIRE METROPOLE","VERIF":"SDIS"}}
,{"type":"Feature","geometry":{"type":"Point","coordinates":[-0.677645405249103,47.5596803299888]},"properties":{"GID":75,"NPOMPIER":"15","TYPE":"PI","DIAMETRE":"100","CONFORM":"O","ADRESSE":"RUE CLAUDE MONET","COMMUNE":"LA MEMBROLLE SUR LONGUENEE","DATEMES":"20060628000000","PRESSION":0,"DEBIT":112,"NOMVOIE":"RUE CLAUDE MONET","EXPLOIT":"ANGERS LOIRE METROPOLE","VERIF":"SDIS"}}
,{"type":"Feature","geometry":{"type":"Point","coordinates":[-0.498188280892868,47.4493586355961]},"properties":{"GID":76,"NPOMPIER":"20","TYPE":"PI","DIAMETRE":"100","CONFORM":"O","ADRESSE":"Rue Auguste Chouteau No 94","COMMUNE":"TRELAZE","DATEMES":"20060625000000","PRESSION":0,"DEBIT":160,"NOMVOIE":"Rue Auguste Chouteau","EXPLOIT":"ANGERS LOIRE METROPOLE","VERIF":"SDIS"}}
,{"type":"Feature","geometry":{"type":"Point","coordinates":[-0.536520232310407,47.4470006869253]},"properties":{"GID":77,"NPOMPIER":"991","TYPE":"PI","DIAMETRE":"100","CONFORM":"O","ADRESSE":"Rue des Ponts de Ce No 141 devant Self Jouet","COMMUNE":"ANGERS","DATEMES":"20060630000000","PRESSION":0,"DEBIT":130,"NOMVOIE":"Rue des Ponts de Cé","EXPLOIT":"ANGERS LOIRE METROPOLE","VERIF":"SDIS"}}
,{"type":"Feature","geometry":{"type":"Point","coordinates":[-0.534608518922006,47.4782738611882,0]},"properties":{"GID":78,"NPOMPIER":"1068","TYPE":"PI","DIAMETRE":"100","CONFORM":"O","ADRESSE":"Rue Victor Hugo angle rue du Général Lamoricière","COMMUNE":"ANGERS","DATEMES":"20060629000000","PRESSION":0,"DEBIT":147,"NOMVOIE":"Rue Victor Hugo","EXPLOIT":"ANGERS LOIRE METROPOLE","VERIF":"SDIS"}}
,{"type":"Feature","geometry":{"type":"Point","coordinates":[-0.535165067987261,47.4829606179254]},"properties":{"GID":79,"NPOMPIER":"417","TYPE":"PI","DIAMETRE":"100","CONFORM":"O","ADRESSE":"Rue de la Chalouere No 114","COMMUNE":"ANGERS","DATEMES":"20060630000000","PRESSION":0,"DEBIT":89,"NOMVOIE":"Rue de la Chalouère","EXPLOIT":"ANGERS LOIRE METROPOLE","VERIF":"SDIS"}}
,{"type":"Feature","geometry":{"type":"Point","coordinates":[-0.630385553338687,47.4746517682536,0]},"properties":{"GID":80,"NPOMPIER":"99","TYPE":"PI","DIAMETRE":"100","CONFORM":"O","ADRESSE":"Rue du Bourg de Paille","COMMUNE":"BEAUCOUZE","DATEMES":"20060701000000","PRESSION":0,"DEBIT":81,"NOMVOIE":"Rue du Bourg de Paille","EXPLOIT":"ANGERS LOIRE METROPOLE","VERIF":"SDIS"}}
,{"type":"Feature","geometry":{"type":"Point","coordinates":[-0.539862495529406,47.4777786007026]},"properties":{"GID":81,"NPOMPIER":"141","TYPE":"PI","DIAMETRE":"100","CONFORM":"O","ADRESSE":"Rue Florent Cornilleau face rue de Belfort","COMMUNE":"ANGERS","DATEMES":"20060630000000","PRESSION":0,"DEBIT":207,"NOMVOIE":"Rue de Belfort","EXPLOIT":"ANGERS LOIRE METROPOLE","VERIF":"SDIS"}}
,{"type":"Feature","geometry":{"type":"Point","coordinates":[-0.519938408187499,47.4402352334254,0]},"properties":{"GID":82,"NPOMPIER":"113","TYPE":"PI","DIAMETRE":"100","CONFORM":"O","ADRESSE":"Chemin des Perins dans le rond point","COMMUNE":"LES PONTS DE CE","DATEMES":"20060630000000","PRESSION":0,"DEBIT":83,"NOMVOIE":"Rue des Perrins","EXPLOIT":"ANGERS LOIRE METROPOLE","VERIF":"SDIS"}}
,{"type":"Feature","geometry":{"type":"Point","coordinates":[-0.474932643272587,47.5145879738049]},"properties":{"GID":83,"NPOMPIER":"21","TYPE":"PI","DIAMETRE":"100","CONFORM":"O","ADRESSE":"Rue Emmanuel Voisin Angle rue Rene Bazin","COMMUNE":"SAINT-SYLVAIN D ANJOU","DATEMES":"20060630000000","PRESSION":0,"DEBIT":150,"NOMVOIE":"Rue  Emmanuel Voisin","EXPLOIT":"ANGERS LOIRE METROPOLE","VERIF":"SDIS"}}
,{"type":"Feature","geometry":{"type":"Point","coordinates":[-0.486890664420834,47.4699789553076,0]},"properties":{"GID":84,"NPOMPIER":"41","TYPE":"PI","DIAMETRE":"100","CONFORM":"O","ADRESSE":"Rue Paul Valery Angle Charles Peguy","COMMUNE":"SAINT-BARTHELEMY D ANJOU","DATEMES":"20060701000000","PRESSION":0,"DEBIT":86,"NOMVOIE":"Rue Paul Valéry","EXPLOIT":"ANGERS LOIRE METROPOLE","VERIF":"SDIS"}}
,{"type":"Feature","geometry":{"type":"Point","coordinates":[-0.532051624892635,47.4181846149667,0]},"properties":{"GID":86,"NPOMPIER":"11","TYPE":"PI","DIAMETRE":"100","CONFORM":"O","ADRESSE":"Levee de St Jean de la Croix Ldt la Nouzillerie","COMMUNE":"LES PONTS DE CE","DATEMES":"20060630000000","PRESSION":0,"DEBIT":119,"NOMVOIE":"La Nouzillerie","EXPLOIT":"ANGERS LOIRE METROPOLE","VERIF":"SDIS"}}
,{"type":"Feature","geometry":{"type":"Point","coordinates":[-0.501830337661027,47.5646094253395]},"properties":{"GID":87,"NPOMPIER":"20","TYPE":"PI","DIAMETRE":"100","CONFORM":"O","ADRESSE":"Rue Paul Gauguin","COMMUNE":"BRIOLLAY","DATEMES":"20100101000000","PRESSION":6,"DEBIT":90,"NOMVOIE":"Rue Paul Gauguin","EXPLOIT":"VEOLIA","VERIF":"ALM"}}
,{"type":"Feature","geometry":{"type":"Point","coordinates":[-0.503940354056592,47.5644517981701]},"properties":{"GID":88,"NPOMPIER":"19","TYPE":"PI","DIAMETRE":"100","CONFORM":"O","ADRESSE":"Rue Auguste Renoir à coté du batiment commercial","COMMUNE":"BRIOLLAY","DATEMES":"20100101000000","PRESSION":6,"DEBIT":95,"NOMVOIE":"Rue Claude Monet","EXPLOIT":"VEOLIA","VERIF":"ALM"}}
,{"type":"Feature","geometry":{"type":"Point","coordinates":[-0.536756349617509,47.4345755604895,0]},"properties":{"GID":89,"NPOMPIER":"20","TYPE":"PI","DIAMETRE":"100","CONFORM":"O","ADRESSE":"Chemin de Pouille Entree de L'école","COMMUNE":"LES PONTS DE CE","DATEMES":"20060630000000","PRESSION":0,"DEBIT":67,"NOMVOIE":"Route de Pouillé","EXPLOIT":"ANGERS LOIRE METROPOLE","VERIF":"SDIS"}}
,{"type":"Feature","geometry":{"type":"Point","coordinates":[-0.548019298441487,47.4757902023016,0]},"properties":{"GID":91,"NPOMPIER":"149","TYPE":"PI","DIAMETRE":"100","CONFORM":"O","ADRESSE":"Av Marie Talet angle rue de Buffon","COMMUNE":"ANGERS","DATEMES":"20060701000000","PRESSION":0,"DEBIT":72,"NOMVOIE":"Avenue Marie Talet","EXPLOIT":"ANGERS LOIRE METROPOLE","VERIF":"SDIS"}}
,{"type":"Feature","geometry":{"type":"Point","coordinates":[-0.556999087774018,47.4663254470461]},"properties":{"GID":92,"NPOMPIER":"124","TYPE":"PI","DIAMETRE":"100","CONFORM":"O","ADRESSE":"Place de la Visitation angle rue d'Anjou","COMMUNE":"ANGERS","DATEMES":"20060630000000","PRESSION":0,"DEBIT":107,"NOMVOIE":"Rue de la Gare","EXPLOIT":"ANGERS LOIRE METROPOLE","VERIF":"SDIS"}}
,{"type":"Feature","geometry":{"type":"Point","coordinates":[-0.540406795938197,47.4678022347689]},"properties":{"GID":94,"NPOMPIER":"183","TYPE":"PI","DIAMETRE":"100","CONFORM":"O","ADRESSE":"Rue du Quinconce angle rue Roger Groizeleau","COMMUNE":"ANGERS","DATEMES":"20060630000000","PRESSION":0,"DEBIT":112,"NOMVOIE":"Rue du Quinconce","EXPLOIT":"ANGERS LOIRE METROPOLE","VERIF":"SDIS"}}
,{"type":"Feature","geometry":{"type":"Point","coordinates":[-0.495399462030347,47.4365427529084,0]},"properties":{"GID":95,"NPOMPIER":"124","TYPE":"PI","DIAMETRE":"100","CONFORM":"O","ADRESSE":"Chemin Pellouard rond point Clos du Plessis","COMMUNE":"LES PONTS DE CE","DATEMES":"20060701000000","PRESSION":3.2,"DEBIT":118,"NOMVOIE":"Le Plessis Charruault","EXPLOIT":"ANGERS LOIRE METROPOLE","VERIF":"ALM"}}
,{"type":"Feature","geometry":{"type":"Point","coordinates":[-0.583845442617132,47.4786018357629]},"properties":{"GID":96,"NPOMPIER":"276","TYPE":"PI","DIAMETRE":"100","CONFORM":"O","ADRESSE":"Av Notre Dame du Lac No 18","COMMUNE":"ANGERS","DATEMES":"20120601000000","PRESSION":2.5,"DEBIT":72,"NOMVOIE":"Avenue Notre Dame du Lac","EXPLOIT":"ANGERS LOIRE METROPOLE","VERIF":"ALM"}}
,{"type":"Feature","geometry":{"type":"Point","coordinates":[-0.58611075304187,47.4737169050076]},"properties":{"GID":97,"NPOMPIER":"295","TYPE":"PI","DIAMETRE":"100","CONFORM":"O","ADRESSE":"Av du General Patton angle rue de Belle Beille","COMMUNE":"ANGERS","DATEMES":"20060630000000","PRESSION":0,"DEBIT":114,"NOMVOIE":"Rue de Belle-Beille","EXPLOIT":"ANGERS LOIRE METROPOLE","VERIF":"SDIS"}}
,{"type":"Feature","geometry":{"type":"Point","coordinates":[-0.472858601089787,47.5180624178424]},"properties":{"GID":3481,"NPOMPIER":"23","TYPE":"PI","DIAMETRE":"100","CONFORM":"O","ADRESSE":"Rue de la Menagere Angle rue Emmanuel Voisin","COMMUNE":"SAINT-SYLVAIN D ANJOU","DATEMES":"20060630000000","PRESSION":0,"DEBIT":90,"NOMVOIE":"Rue de la Ménagère","EXPLOIT":"ANGERS LOIRE METROPOLE","VERIF":"SDIS"}}
,{"type":"Feature","geometry":{"type":"Point","coordinates":[-0.504366921487295,47.4927877727339]},"properties":{"GID":3501,"NPOMPIER":"91","TYPE":"PI","DIAMETRE":"100","CONFORM":null,"ADRESSE":null,"COMMUNE":"ECOUFLANT","DATEMES":null,"PRESSION":null,"DEBIT":null,"NOMVOIE":null,"EXPLOIT":"ANGERS LOIRE METROPOLE","VERIF":null}}
,{"type":"Feature","geometry":{"type":"Point","coordinates":[-0.447259070934502,47.5278502262686,0]},"properties":{"GID":130,"NPOMPIER":"27","TYPE":"PI","DIAMETRE":"100","CONFORM":"N","ADRESSE":"Chemin des Villages","COMMUNE":"PELLOUAILLES LES VIGNES","DATEMES":"20060630000000","PRESSION":4,"DEBIT":56,"NOMVOIE":"Chemin des Villages","EXPLOIT":"ANGERS LOIRE METROPOLE","VERIF":"ALM"}}
,{"type":"Feature","geometry":{"type":"Point","coordinates":[-0.597268374499944,47.4563389984681]},"properties":{"GID":131,"NPOMPIER":"961","TYPE":"PI","DIAMETRE":"100","CONFORM":"O","ADRESSE":"Sq de la Chouaniere Entre le 60 et 62","COMMUNE":"ANGERS","DATEMES":"20060630000000","PRESSION":0,"DEBIT":86,"NOMVOIE":"Square de la Chouanière","EXPLOIT":"ANGERS LOIRE METROPOLE","VERIF":"SDIS"}}
,{"type":"Feature","geometry":{"type":"Point","coordinates":[-0.630798595583032,47.4810217373347,0]},"properties":{"GID":132,"NPOMPIER":"108","TYPE":"PI","DIAMETRE":"100","CONFORM":"O","ADRESSE":"Allée des Chênes - Allée du Romarin","COMMUNE":"BEAUCOUZE","DATEMES":"20060701000000","PRESSION":6,"DEBIT":152,"NOMVOIE":"Allée des Chênes","EXPLOIT":"ANGERS LOIRE METROPOLE","VERIF":"SDIS"}}
,{"type":"Feature","geometry":{"type":"Point","coordinates":[-0.680290406742301,47.4835183996966,0]},"properties":{"GID":133,"NPOMPIER":"8","TYPE":"PI","DIAMETRE":"100","CONFORM":"O","ADRESSE":"Rue Paul Gauguin (face au no 3)","COMMUNE":"SAINT-LAMBERT LA POTHERIE","DATEMES":"20060701000000","PRESSION":0,"DEBIT":92,"NOMVOIE":"Rue Paul Gauguin","EXPLOIT":"ANGERS LOIRE METROPOLE","VERIF":"SDIS"}}
,{"type":"Feature","geometry":{"type":"Point","coordinates":[-0.547015238976606,47.4515226659755]},"properties":{"GID":135,"NPOMPIER":"524","TYPE":"PI","DIAMETRE":"100","CONFORM":"O","ADRESSE":"Bd Bedier face No 60","COMMUNE":"ANGERS","DATEMES":"20060630000000","PRESSION":0,"DEBIT":140,"NOMVOIE":"Boulevard Joseph Bédier","EXPLOIT":"ANGERS LOIRE METROPOLE","VERIF":"SDIS"}}
,{"type":"Feature","geometry":{"type":"Point","coordinates":[-0.55229310971797,47.4845560402487,0]},"properties":{"GID":136,"NPOMPIER":"359","TYPE":"PI","DIAMETRE":"100","CONFORM":"O","ADRESSE":"Rue Haute de Reculee face No 68","COMMUNE":"ANGERS","DATEMES":"20060630000000","PRESSION":0,"DEBIT":98,"NOMVOIE":"Rue haute de Reculée","EXPLOIT":"ANGERS LOIRE METROPOLE","VERIF":"SDIS"}}
,{"type":"Feature","geometry":{"type":"Point","coordinates":[-0.475473223555707,47.4574961605373]},"properties":{"GID":137,"NPOMPIER":"112","TYPE":"PI","DIAMETRE":"100","CONFORM":null,"ADRESSE":"Rue André Gide","COMMUNE":"TRELAZE","DATEMES":"20111201000000","PRESSION":0,"DEBIT":0,"NOMVOIE":"La Grande Guérinière","EXPLOIT":"ANGERS LOIRE METROPOLE","VERIF":"SDIS"}}
,{"type":"Feature","geometry":{"type":"Point","coordinates":[-0.575643352132648,47.4737641994921,0]},"properties":{"GID":138,"NPOMPIER":"300","TYPE":"PI","DIAMETRE":"100","CONFORM":"O","ADRESSE":"Rue Charlet angle rue Saint Jacques","COMMUNE":"ANGERS","DATEMES":"20060630000000","PRESSION":0,"DEBIT":170,"NOMVOIE":"Rue Charlet","EXPLOIT":"ANGERS LOIRE METROPOLE","VERIF":"SDIS"}}
,{"type":"Feature","geometry":{"type":"Point","coordinates":[-0.553884466857845,47.4636551968328]},"properties":{"GID":139,"NPOMPIER":"674","TYPE":"PI","DIAMETRE":"100","CONFORM":"O","ADRESSE":"Rue du Canal angle rue Jean Bodin","COMMUNE":"ANGERS","DATEMES":"20060630000000","PRESSION":0,"DEBIT":94,"NOMVOIE":"Avenue de Contades","EXPLOIT":"ANGERS LOIRE METROPOLE","VERIF":"SDIS"}}
,{"type":"Feature","geometry":{"type":"Point","coordinates":[-0.498745103253591,47.4867936432279,0]},"properties":{"GID":140,"NPOMPIER":"137","TYPE":"PI","DIAMETRE":"100","CONFORM":"O","ADRESSE":"Rue des Claveries (pres du numéro 58)","COMMUNE":"SAINT-BARTHELEMY D ANJOU","DATEMES":"20060630000000","PRESSION":5,"DEBIT":163,"NOMVOIE":"Rue de la Claverie","EXPLOIT":"ANGERS LOIRE METROPOLE","VERIF":"ALM"}}
,{"type":"Feature","geometry":{"type":"Point","coordinates":[-0.604916806489946,47.4803058989761,0]},"properties":{"GID":141,"NPOMPIER":"209","TYPE":"PI","DIAMETRE":"100","CONFORM":"O","ADRESSE":"Rue lenotre A.D entre Lakanal et Lavoisier","COMMUNE":"ANGERS","DATEMES":"20060630000000","PRESSION":0,"DEBIT":91,"NOMVOIE":"Rue Le Nôtre","EXPLOIT":"ANGERS LOIRE METROPOLE","VERIF":"SDIS"}}
,{"type":"Feature","geometry":{"type":"Point","coordinates":[-0.569167233823616,47.4705184694562]},"properties":{"GID":142,"NPOMPIER":"386","TYPE":"PI","DIAMETRE":"100","CONFORM":"O","ADRESSE":"Ave Yolande d'Aragon angle Bd du Bon Pasteur","COMMUNE":"ANGERS","DATEMES":"20060630000000","PRESSION":0,"DEBIT":144,"NOMVOIE":"Avenue Yolande d' Aragon","EXPLOIT":"ANGERS LOIRE METROPOLE","VERIF":"SDIS"}}
,{"type":"Feature","geometry":{"type":"Point","coordinates":[-0.607365038535902,47.4300668499971,0]},"properties":{"GID":143,"NPOMPIER":"72","TYPE":"PI","DIAMETRE":"100","CONFORM":"O","ADRESSE":"Rue de Haute Roche No 40","COMMUNE":"BOUCHEMAINE","DATEMES":"20060630000000","PRESSION":0,"DEBIT":60,"NOMVOIE":"Rue de Haute Roche","EXPLOIT":"ANGERS LOIRE METROPOLE","VERIF":"SDIS"}}
,{"type":"Feature","geometry":{"type":"Point","coordinates":[-0.5820760440149,47.4995770245784,0]},"properties":{"GID":144,"NPOMPIER":"167","TYPE":"PI","DIAMETRE":"100","CONFORM":null,"ADRESSE":"Plateau de la Mayenne","COMMUNE":"AVRILLE","DATEMES":"20001231000000","PRESSION":0,"DEBIT":0,"NOMVOIE":null,"EXPLOIT":"ANGERS LOIRE METROPOLE","VERIF":"X"}}
,{"type":"Feature","geometry":{"type":"Point","coordinates":[-0.630284718815998,47.4648105251482,0]},"properties":{"GID":145,"NPOMPIER":"114","TYPE":"PI","DIAMETRE":"100","CONFORM":"O","ADRESSE":"Rue des Ajoncs","COMMUNE":"BEAUCOUZE","DATEMES":"20060701000000","PRESSION":4.5,"DEBIT":107,"NOMVOIE":"Rue des Ajoncs","EXPLOIT":"ANGERS LOIRE METROPOLE","VERIF":"ALM"}}
,{"type":"Feature","geometry":{"type":"Point","coordinates":[-0.560583746652285,47.4508103428588]},"properties":{"GID":146,"NPOMPIER":"715","TYPE":"PI","DIAMETRE":"100","CONFORM":"O","ADRESSE":"Bd Jacques Portet angle rue Adrien Recouvreur","COMMUNE":"ANGERS","DATEMES":"20060702000000","PRESSION":4,"DEBIT":186,"NOMVOIE":"Boulevard Jacques Portet","EXPLOIT":"ANGERS LOIRE METROPOLE","VERIF":"ALM"}}
,{"type":"Feature","geometry":{"type":"Point","coordinates":[-0.490850848370199,47.4574480263159]},"properties":{"GID":147,"NPOMPIER":"135","TYPE":"PI","DIAMETRE":"100","CONFORM":"O","ADRESSE":"Rue du Rocher","COMMUNE":"SAINT-BARTHELEMY D ANJOU","DATEMES":"20060630000000","PRESSION":4.19999980926514,"DEBIT":62,"NOMVOIE":"Rue du Rocher","EXPLOIT":"ANGERS LOIRE METROPOLE","VERIF":"ALM"}}
,{"type":"Feature","geometry":{"type":"Point","coordinates":[-0.598839882085218,47.5280955476301]},"properties":{"GID":148,"NPOMPIER":"18","TYPE":"PI","DIAMETRE":"100","CONFORM":"O","ADRESSE":"Avenue de l'Europe angle rue des Vignes","COMMUNE":"MONTREUIL JUIGNE","DATEMES":"20060630000000","PRESSION":0,"DEBIT":157,"NOMVOIE":"Rue de Belgique","EXPLOIT":"ANGERS LOIRE METROPOLE","VERIF":"SDIS"}}
,{"type":"Feature","geometry":{"type":"Point","coordinates":[-0.621499168853688,47.5394578149107]},"properties":{"GID":149,"NPOMPIER":"119","TYPE":"PI","DIAMETRE":"100","CONFORM":"O","ADRESSE":"Rue Jacques Becker","COMMUNE":"MONTREUIL JUIGNE","DATEMES":"20060630000000","PRESSION":6,"DEBIT":148,"NOMVOIE":"Rue Jacques Becker","EXPLOIT":"ANGERS LOIRE METROPOLE","VERIF":"ALM"}}
,{"type":"Feature","geometry":{"type":"Point","coordinates":[-0.661679454988283,47.4619331969249,0]},"properties":{"GID":150,"NPOMPIER":"24","TYPE":"PI","DIAMETRE":"100","CONFORM":"O","ADRESSE":"Rue de la Liberte entree A.B.C cuisines","COMMUNE":"SAINT-JEAN DE LINIERES","DATEMES":"20060629000000","PRESSION":0,"DEBIT":130,"NOMVOIE":"Rue de la Liberté","EXPLOIT":"ANGERS LOIRE METROPOLE","VERIF":"SDIS"}}
,{"type":"Feature","geometry":{"type":"Point","coordinates":[-0.555958689732471,47.4674033322562]},"properties":{"GID":151,"NPOMPIER":"981","TYPE":"PI","DIAMETRE":"100","CONFORM":"O","ADRESSE":"Bd du Roi Rene angle rue Talot","COMMUNE":"ANGERS","DATEMES":"20060630000000","PRESSION":0,"DEBIT":115,"NOMVOIE":"Boulevard du Roi René","EXPLOIT":"ANGERS LOIRE METROPOLE","VERIF":"SDIS"}}
,{"type":"Feature","geometry":{"type":"Point","coordinates":[-0.561770785255055,47.4810688218422,0]},"properties":{"GID":152,"NPOMPIER":"365","TYPE":"PI","DIAMETRE":"100","CONFORM":"O","ADRESSE":"Rue Bigot No 1 angle rue Moll","COMMUNE":"ANGERS","DATEMES":"20060701000000","PRESSION":0,"DEBIT":174,"NOMVOIE":"Rue du Figuier","EXPLOIT":"ANGERS LOIRE METROPOLE","VERIF":"SDIS"}}
,{"type":"Feature","geometry":{"type":"Point","coordinates":[-0.509676434313891,47.4650056638548]},"properties":{"GID":153,"NPOMPIER":"8","TYPE":"PI","DIAMETRE":"100","CONFORM":"O","ADRESSE":"Rue de la Paperie Entree Ets Martin Rondeau","COMMUNE":"SAINT-BARTHELEMY D ANJOU","DATEMES":"20060701000000","PRESSION":0,"DEBIT":78,"NOMVOIE":"Rue de la Paperie","EXPLOIT":"ANGERS LOIRE METROPOLE","VERIF":"SDIS"}}
,{"type":"Feature","geometry":{"type":"Point","coordinates":[-0.603144064768164,47.5125961206808,0]},"properties":{"GID":154,"NPOMPIER":"147","TYPE":"PI","DIAMETRE":"100","CONFORM":"O","ADRESSE":"Allée Georges Seurat","COMMUNE":"AVRILLE","DATEMES":"20060701000000","PRESSION":0,"DEBIT":98,"NOMVOIE":"Allée Georges Seurat","EXPLOIT":"ANGERS LOIRE METROPOLE","VERIF":"SDIS"}}
,{"type":"Feature","geometry":{"type":"Point","coordinates":[-0.553980284173452,47.4698228910187]},"properties":{"GID":155,"NPOMPIER":"94","TYPE":"PI","DIAMETRE":"100","CONFORM":"O","ADRESSE":"Rue St Aubin No 5","COMMUNE":"ANGERS","DATEMES":"20060630000000","PRESSION":0,"DEBIT":141,"NOMVOIE":"Rue Saint-Aubin","EXPLOIT":"ANGERS LOIRE METROPOLE","VERIF":"SDIS"}}
,{"type":"Feature","geometry":{"type":"Point","coordinates":[-0.509649449225486,47.442191139926,0]},"properties":{"GID":156,"NPOMPIER":"55","TYPE":"PI","DIAMETRE":"100","CONFORM":"N","ADRESSE":"Chemin de la Petite Perriere No 37","COMMUNE":"LES PONTS DE CE","DATEMES":"20060630000000","PRESSION":0,"DEBIT":53,"NOMVOIE":"Rue de la Petite Perrière","EXPLOIT":"ANGERS LOIRE METROPOLE","VERIF":"SDIS"}}
,{"type":"Feature","geometry":{"type":"Point","coordinates":[-0.555299490783213,47.4450578288765]},"properties":{"GID":157,"NPOMPIER":"778","TYPE":"PI","DIAMETRE":"100","CONFORM":"O","ADRESSE":"Rue du Grand Douzille No 29","COMMUNE":"ANGERS","DATEMES":"20060701000000","PRESSION":0,"DEBIT":157,"NOMVOIE":"Rue du grand Douzillé","EXPLOIT":"ANGERS LOIRE METROPOLE","VERIF":"SDIS"}}
,{"type":"Feature","geometry":{"type":"Point","coordinates":[-0.430327195361198,47.5231714356224,0]},"properties":{"GID":158,"NPOMPIER":"26","TYPE":"PI","DIAMETRE":"100","CONFORM":"O","ADRESSE":"ZI l'Oceane 1","COMMUNE":"VILLEVEQUE","DATEMES":"20060701000000","PRESSION":0,"DEBIT":97,"NOMVOIE":"Rue du Soleil Levant","EXPLOIT":"ANGERS LOIRE METROPOLE","VERIF":"SDIS"}}
,{"type":"Feature","geometry":{"type":"Point","coordinates":[-0.522031914724021,47.4595573354592]},"properties":{"GID":161,"NPOMPIER":"636","TYPE":"PI","DIAMETRE":"100","CONFORM":"O","ADRESSE":"Rue Saint leonard angle rue Jean Jaures","COMMUNE":"ANGERS","DATEMES":"20060701000000","PRESSION":3,"DEBIT":114,"NOMVOIE":"Rue Saint-Léonard","EXPLOIT":"ANGERS LOIRE METROPOLE","VERIF":"ALM"}}
,{"type":"Feature","geometry":{"type":"Point","coordinates":[-0.563123306703247,47.4793674487209,0]},"properties":{"GID":98,"NPOMPIER":"3","TYPE":"PI","DIAMETRE":"100","CONFORM":"O","ADRESSE":"Bd Daviers No 48 angle rue Bigot","COMMUNE":"ANGERS","DATEMES":"20060630000000","PRESSION":0,"DEBIT":150,"NOMVOIE":"Boulevard Daviers","EXPLOIT":"ANGERS LOIRE METROPOLE","VERIF":"SDIS"}}
,{"type":"Feature","geometry":{"type":"Point","coordinates":[-0.50896449786691,47.4904718745393,0]},"properties":{"GID":99,"NPOMPIER":"57","TYPE":"PI","DIAMETRE":"100","CONFORM":"O","ADRESSE":"Rue du Bois l'Abbe - RN 23","COMMUNE":"ECOUFLANT","DATEMES":"20060629000000","PRESSION":0,"DEBIT":73,"NOMVOIE":"Rue du Bois l'Abbé","EXPLOIT":"ANGERS LOIRE METROPOLE","VERIF":"SDIS"}}
,{"type":"Feature","geometry":{"type":"Point","coordinates":[-0.541540498927164,47.4495619379738]},"properties":{"GID":100,"NPOMPIER":"535","TYPE":"PI","DIAMETRE":"100","CONFORM":"O","ADRESSE":"Square Gaston Allard entree Courrier de l'Ouest","COMMUNE":"ANGERS","DATEMES":"20121201000000","PRESSION":4,"DEBIT":113,"NOMVOIE":"Square Gaston Allard","EXPLOIT":"ANGERS LOIRE METROPOLE","VERIF":"ALM"}}
,{"type":"Feature","geometry":{"type":"Point","coordinates":[-0.52928004137105,47.4862362753201]},"properties":{"GID":175,"NPOMPIER":"402","TYPE":"PI","DIAMETRE":"100","CONFORM":"O","ADRESSE":"Bd du Marechal Gallieni No 15","COMMUNE":"ANGERS","DATEMES":"20130809000000","PRESSION":2.5,"DEBIT":79,"NOMVOIE":"Boulevard du maréchal Gallieni","EXPLOIT":"ANGERS LOIRE METROPOLE","VERIF":"ALM"}}
,{"type":"Feature","geometry":{"type":"Point","coordinates":[-0.567323489531397,47.4713383789107]},"properties":{"GID":176,"NPOMPIER":"990","TYPE":"PI","DIAMETRE":"100","CONFORM":"O","ADRESSE":"Av Yolande d'Aragon Devant 2eme Immeuble en Epi","COMMUNE":"ANGERS","DATEMES":"20060630000000","PRESSION":0,"DEBIT":115,"NOMVOIE":"Avenue Yolande d' Aragon","EXPLOIT":"ANGERS LOIRE METROPOLE","VERIF":"SDIS"}}
,{"type":"Feature","geometry":{"type":"Point","coordinates":[-0.529459957892,47.5321218314727,0]},"properties":{"GID":177,"NPOMPIER":"6","TYPE":"PI","DIAMETRE":"100","CONFORM":"O","ADRESSE":"Mail des Quatre Vents angle rue de L'Ormeau Blanc","COMMUNE":"ECOUFLANT","DATEMES":"20060701000000","PRESSION":0,"DEBIT":121,"NOMVOIE":"Mail des Quatre Vents","EXPLOIT":"ANGERS LOIRE METROPOLE","VERIF":"SDIS"}}
,{"type":"Feature","geometry":{"type":"Point","coordinates":[-0.67525973005617,47.4894256264031,0]},"properties":{"GID":179,"NPOMPIER":"23","TYPE":"PI","DIAMETRE":"100","CONFORM":"N","ADRESSE":"CD 105 (a 200 metres du CD 56)","COMMUNE":"SAINT-LAMBERT LA POTHERIE","DATEMES":"20060701000000","PRESSION":0,"DEBIT":58,"NOMVOIE":"La Fessardière","EXPLOIT":"ANGERS LOIRE METROPOLE","VERIF":"SDIS"}}
,{"type":"Feature","geometry":{"type":"Point","coordinates":[-0.530825059748188,47.4640629333461]},"properties":{"GID":180,"NPOMPIER":"1079","TYPE":"PI","DIAMETRE":"100","CONFORM":"O","ADRESSE":"Rue Marcel Pajotin","COMMUNE":"ANGERS","DATEMES":"20060629000000","PRESSION":0,"DEBIT":115,"NOMVOIE":"Rue Marcel Pajotin","EXPLOIT":"ANGERS LOIRE METROPOLE","VERIF":"SDIS"}}
,{"type":"Feature","geometry":{"type":"Point","coordinates":[-0.468670879345814,47.4503175029224]},"properties":{"GID":181,"NPOMPIER":"44","TYPE":"PI","DIAMETRE":"100","CONFORM":"O","ADRESSE":"Rue des Cormiers No 50","COMMUNE":"TRELAZE","DATEMES":"20110301000000","PRESSION":null,"DEBIT":102,"NOMVOIE":"Rue des Cormiers","EXPLOIT":"ANGERS LOIRE METROPOLE","VERIF":"SDIS"}}
,{"type":"Feature","geometry":{"type":"Point","coordinates":[-0.703879934001823,47.4720806559766]},"properties":{"GID":182,"NPOMPIER":"17","TYPE":"PI","DIAMETRE":"100","CONFORM":"O","ADRESSE":"Impasse des Robinieres","COMMUNE":"SAINT-LEGER DES BOIS","DATEMES":"20080201000000","PRESSION":0,"DEBIT":62,"NOMVOIE":"Route du Petit Anjou","EXPLOIT":"ANGERS LOIRE METROPOLE","VERIF":"SDIS"}}
,{"type":"Feature","geometry":{"type":"Point","coordinates":[-0.546178409680886,47.4461716280684]},"properties":{"GID":183,"NPOMPIER":"784","TYPE":"PI","DIAMETRE":"100","CONFORM":"O","ADRESSE":"Rue Carl Linne prox. No 16","COMMUNE":"ANGERS","DATEMES":"20060630000000","PRESSION":0,"DEBIT":122,"NOMVOIE":"Rue Carl Linné","EXPLOIT":"ANGERS LOIRE METROPOLE","VERIF":"SDIS"}}
,{"type":"Feature","geometry":{"type":"Point","coordinates":[-0.553247172474388,47.4771000921164]},"properties":{"GID":184,"NPOMPIER":"50","TYPE":"PI","DIAMETRE":"100","CONFORM":"O","ADRESSE":"Bd Ayrault angle quai Gambetta","COMMUNE":"ANGERS","DATEMES":"20060701000000","PRESSION":0,"DEBIT":106,"NOMVOIE":"Boulevard Ayrault","EXPLOIT":"ANGERS LOIRE METROPOLE","VERIF":"SDIS"}}
,{"type":"Feature","geometry":{"type":"Point","coordinates":[-0.525683147700792,47.4536623055199]},"properties":{"GID":185,"NPOMPIER":"647","TYPE":"PI","DIAMETRE":"100","CONFORM":"O","ADRESSE":"Rue Jean Jaures No 141","COMMUNE":"ANGERS","DATEMES":"20060630000000","PRESSION":0,"DEBIT":154,"NOMVOIE":"Rue Jean Jaurès","EXPLOIT":"ANGERS LOIRE METROPOLE","VERIF":"SDIS"}}
,{"type":"Feature","geometry":{"type":"Point","coordinates":[-0.522823994167589,47.3642309480762]},"properties":{"GID":186,"NPOMPIER":"3","TYPE":"PI","DIAMETRE":"100","CONFORM":"O","ADRESSE":"Rue de l'Aubance","COMMUNE":"SOULAINES SUR AUBANCE","DATEMES":"20110401000000","PRESSION":6.80000019073486,"DEBIT":92,"NOMVOIE":"Rue de l' Aubance","EXPLOIT":"VEOLIA","VERIF":null}}
,{"type":"Feature","geometry":{"type":"Point","coordinates":[-0.48708469908036,47.4625263958017,0]},"properties":{"GID":187,"NPOMPIER":"46","TYPE":"PI","DIAMETRE":"100","CONFORM":"O","ADRESSE":"Rue des Closiers No 21","COMMUNE":"SAINT-BARTHELEMY D ANJOU","DATEMES":"20060701000000","PRESSION":0,"DEBIT":138,"NOMVOIE":"Rue des Closiers","EXPLOIT":"ANGERS LOIRE METROPOLE","VERIF":"SDIS"}}
,{"type":"Feature","geometry":{"type":"Point","coordinates":[-0.617125560847124,47.5435558100371,0]},"properties":{"GID":188,"NPOMPIER":"111","TYPE":"PI","DIAMETRE":"100","CONFORM":"O","ADRESSE":"Rue St-Jean Baptiste (pres de l'eglise)","COMMUNE":"MONTREUIL JUIGNE","DATEMES":"20060630000000","PRESSION":0,"DEBIT":128,"NOMVOIE":"Rue  Saint-Jean Baptiste","EXPLOIT":"ANGERS LOIRE METROPOLE","VERIF":"SDIS"}}
,{"type":"Feature","geometry":{"type":"Point","coordinates":[-0.559838824601354,47.4433557418376]},"properties":{"GID":189,"NPOMPIER":"776","TYPE":"PI","DIAMETRE":"100","CONFORM":"O","ADRESSE":"Bd d'Arbrissel entree Ecole Claude Monet","COMMUNE":"ANGERS","DATEMES":"20060701000000","PRESSION":0,"DEBIT":156,"NOMVOIE":"Boulevard Robert d' Arbrissel","EXPLOIT":"ANGERS LOIRE METROPOLE","VERIF":"SDIS"}}
,{"type":"Feature","geometry":{"type":"Point","coordinates":[-0.588952690877984,47.5105400959866,0]},"properties":{"GID":190,"NPOMPIER":"79","TYPE":"PI","DIAMETRE":"100","CONFORM":"O","ADRESSE":"Rue du Ripolet","COMMUNE":"AVRILLE","DATEMES":"20060701000000","PRESSION":4.2,"DEBIT":162,"NOMVOIE":"Avenue de Ripollet","EXPLOIT":"ANGERS LOIRE METROPOLE","VERIF":"ALM"}}
,{"type":"Feature","geometry":{"type":"Point","coordinates":[-0.522485339947837,47.4749905812687]},"properties":{"GID":192,"NPOMPIER":"614","TYPE":"PI","DIAMETRE":"100","CONFORM":"N","ADRESSE":"Rue du Daguenet pres du passage a niveau","COMMUNE":"ANGERS","DATEMES":"20120601000000","PRESSION":2.5,"DEBIT":50,"NOMVOIE":"Rue du Daguenet","EXPLOIT":"ANGERS LOIRE METROPOLE","VERIF":"ALM"}}
,{"type":"Feature","geometry":{"type":"Point","coordinates":[-0.606502445557316,47.4512749572247,0]},"properties":{"GID":193,"NPOMPIER":"51","TYPE":"PI","DIAMETRE":"100","CONFORM":"O","ADRESSE":"Rue du Coteau du Moulin face au n°9","COMMUNE":"BOUCHEMAINE","DATEMES":"20060630000000","PRESSION":0,"DEBIT":90,"NOMVOIE":"Rue du Coteau du Moulin","EXPLOIT":"ANGERS LOIRE METROPOLE","VERIF":"SDIS"}}
,{"type":"Feature","geometry":{"type":"Point","coordinates":[-0.751839718190496,47.5275705640162]},"properties":{"GID":194,"NPOMPIER":"14","TYPE":"PI","DIAMETRE":"100","CONFORM":null,"ADRESSE":"ZAC des vignes","COMMUNE":"SAINT-CLEMENT DE LA PLACE","DATEMES":null,"PRESSION":0,"DEBIT":0,"NOMVOIE":null,"EXPLOIT":"ANGERS LOIRE METROPOLE","VERIF":null}}
,{"type":"Feature","geometry":{"type":"Point","coordinates":[-0.542559070324611,47.3967724833467]},"properties":{"GID":195,"NPOMPIER":"15","TYPE":"PI","DIAMETRE":"100","CONFORM":"O","ADRESSE":"Rue du Moulin de Folliette","COMMUNE":"MURS-ERIGNE","DATEMES":"20060701000000","PRESSION":0,"DEBIT":71,"NOMVOIE":"Rue du Moulin de Folliette","EXPLOIT":"VEOLIA","VERIF":"SDIS"}}
,{"type":"Feature","geometry":{"type":"Point","coordinates":[-0.511719370130799,47.4634142177137,0]},"properties":{"GID":196,"NPOMPIER":"101","TYPE":"PI","DIAMETRE":"100","CONFORM":"O","ADRESSE":"Déchetterie de Villechien","COMMUNE":"SAINT-BARTHELEMY D ANJOU","DATEMES":"20060630000000","PRESSION":3,"DEBIT":158,"NOMVOIE":"Rue de la Paperie","EXPLOIT":"ANGERS LOIRE METROPOLE","VERIF":"ALM"}}
,{"type":"Feature","geometry":{"type":"Point","coordinates":[-0.41974262475088,47.4857707988486,0]},"properties":{"GID":198,"NPOMPIER":"8","TYPE":"PI","DIAMETRE":"100","CONFORM":"N","ADRESSE":"Ldt La Jouandiere","COMMUNE":"LE PLESSIS GRAMMOIRE","DATEMES":"20060630000000","PRESSION":0,"DEBIT":48,"NOMVOIE":"Clos de Maleville","EXPLOIT":"ANGERS LOIRE METROPOLE","VERIF":"SDIS"}}
,{"type":"Feature","geometry":{"type":"Point","coordinates":[-0.538113899047263,47.4459196949475]},"properties":{"GID":199,"NPOMPIER":"542","TYPE":"PI","DIAMETRE":"100","CONFORM":"O","ADRESSE":"Square de Lattre de Tassigny au fond a gauche","COMMUNE":"ANGERS","DATEMES":"20060630000000","PRESSION":0,"DEBIT":96,"NOMVOIE":"Square de Lattre de Tassigny","EXPLOIT":"ANGERS LOIRE METROPOLE","VERIF":"SDIS"}}
,{"type":"Feature","geometry":{"type":"Point","coordinates":[-0.509171639667051,47.4667214919464,0]},"properties":{"GID":200,"NPOMPIER":"6","TYPE":"PI","DIAMETRE":"100","CONFORM":"O","ADRESSE":"Rue de la Paperie No 32","COMMUNE":"SAINT-BARTHELEMY D ANJOU","DATEMES":"20060701000000","PRESSION":0,"DEBIT":82,"NOMVOIE":"Rue de la Paperie","EXPLOIT":"ANGERS LOIRE METROPOLE","VERIF":"SDIS"}}
,{"type":"Feature","geometry":{"type":"Point","coordinates":[-0.628007964034366,47.4055629334518,0]},"properties":{"GID":201,"NPOMPIER":"90","TYPE":"PI","DIAMETRE":"100","CONFORM":"O","ADRESSE":"Route de la Pommeraye","COMMUNE":"BOUCHEMAINE","DATEMES":"20060630000000","PRESSION":0,"DEBIT":62,"NOMVOIE":"Route de la Pommeraye","EXPLOIT":"ANGERS LOIRE METROPOLE","VERIF":"SDIS"}}
,{"type":"Feature","geometry":{"type":"Point","coordinates":[-0.529592136836892,47.4480966250108]},"properties":{"GID":202,"NPOMPIER":"539","TYPE":"PI","DIAMETRE":"100","CONFORM":"O","ADRESSE":"Bd Charles Detriche angle Villesicard","COMMUNE":"ANGERS","DATEMES":"20060630000000","PRESSION":0,"DEBIT":164,"NOMVOIE":"Boulevard Charles Détriché","EXPLOIT":"ANGERS LOIRE METROPOLE","VERIF":"SDIS"}}
,{"type":"Feature","geometry":{"type":"Point","coordinates":[-0.476690583321576,47.5210547963733,0]},"properties":{"GID":204,"NPOMPIER":"97","TYPE":"PI","DIAMETRE":"100","CONFORM":"O","ADRESSE":"Rue du Chemineau","COMMUNE":"SAINT-SYLVAIN D ANJOU","DATEMES":"20060701000000","PRESSION":7,"DEBIT":104,"NOMVOIE":"Rue du Chemineau","EXPLOIT":"ANGERS LOIRE METROPOLE","VERIF":"ALM"}}
,{"type":"Feature","geometry":{"type":"Point","coordinates":[-0.542811845087481,47.4685266710398]},"properties":{"GID":205,"NPOMPIER":"184","TYPE":"PI","DIAMETRE":"100","CONFORM":"O","ADRESSE":"Rue du Quinconce face No 25","COMMUNE":"ANGERS","DATEMES":"20060627000000","PRESSION":0,"DEBIT":116,"NOMVOIE":"Rue du Quinconce","EXPLOIT":"ANGERS LOIRE METROPOLE","VERIF":"SDIS"}}
,{"type":"Feature","geometry":{"type":"Point","coordinates":[-0.586552351523099,47.487732510702,0]},"properties":{"GID":206,"NPOMPIER":"8","TYPE":"PI","DIAMETRE":"100","CONFORM":"O","ADRESSE":"No 3 Avenue Jean Lurcat","COMMUNE":"AVRILLE","DATEMES":"20060702000000","PRESSION":5,"DEBIT":95,"NOMVOIE":"Avenue Jean Lurçat","EXPLOIT":"ANGERS LOIRE METROPOLE","VERIF":"ALM"}}
,{"type":"Feature","geometry":{"type":"Point","coordinates":[-0.599437236327854,47.4486452505941,0]},"properties":{"GID":207,"NPOMPIER":"36","TYPE":"PI","DIAMETRE":"100","CONFORM":"O","ADRESSE":"Rue du pont de Pruniers face rue Eperviere","COMMUNE":"BOUCHEMAINE","DATEMES":"20060630000000","PRESSION":0,"DEBIT":90,"NOMVOIE":"Rue du Pont de Pruniers","EXPLOIT":"ANGERS LOIRE METROPOLE","VERIF":"SDIS"}}
,{"type":"Feature","geometry":{"type":"Point","coordinates":[-0.624493336877573,47.4768094980632,0]},"properties":{"GID":208,"NPOMPIER":"27","TYPE":"PI","DIAMETRE":"100","CONFORM":"O","ADRESSE":"Avenue du Champ Fleury Allee des Noues","COMMUNE":"BEAUCOUZE","DATEMES":"20060701000000","PRESSION":0,"DEBIT":74,"NOMVOIE":"Avenue du Champ Fleury","EXPLOIT":"ANGERS LOIRE METROPOLE","VERIF":"SDIS"}}
,{"type":"Feature","geometry":{"type":"Point","coordinates":[-0.510728195969785,47.4896561926115,0]},"properties":{"GID":209,"NPOMPIER":"574","TYPE":"PI","DIAMETRE":"100","CONFORM":"O","ADRESSE":"Allée du Docteur Michel Gruet","COMMUNE":"ANGERS","DATEMES":"20060630000000","PRESSION":3,"DEBIT":94,"NOMVOIE":"Rue du docteur Michel Gruet","EXPLOIT":"ANGERS LOIRE METROPOLE","VERIF":"ALM"}}
,{"type":"Feature","geometry":{"type":"Point","coordinates":[-0.543812946005431,47.4578333560285]},"properties":{"GID":210,"NPOMPIER":"413","TYPE":"PI","DIAMETRE":"100","CONFORM":"O","ADRESSE":"Rue Auguste Fonteneau angle Rue des Ponts de Ce","COMMUNE":"ANGERS","DATEMES":"20060630000000","PRESSION":0,"DEBIT":95,"NOMVOIE":"Rue des Ponts de Cé","EXPLOIT":"ANGERS LOIRE METROPOLE","VERIF":"SDIS"}}
,{"type":"Feature","geometry":{"type":"Point","coordinates":[-0.546802523095298,47.4485247801992]},"properties":{"GID":278,"NPOMPIER":"529","TYPE":"PI","DIAMETRE":"100","CONFORM":"O","ADRESSE":"Rue Francis Meillant angle Gaston Allard","COMMUNE":"ANGERS","DATEMES":"20060630000000","PRESSION":0,"DEBIT":129,"NOMVOIE":"Rue Francis Meilland","EXPLOIT":"ANGERS LOIRE METROPOLE","VERIF":"SDIS"}}
,{"type":"Feature","geometry":{"type":"Point","coordinates":[-0.524586420061556,47.5263364693708,0]},"properties":{"GID":279,"NPOMPIER":"73","TYPE":"PI","DIAMETRE":"100","CONFORM":"O","ADRESSE":"Promenade de la Sarthe ( maison de retraite )","COMMUNE":"ECOUFLANT","DATEMES":"20060701000000","PRESSION":0,"DEBIT":110,"NOMVOIE":"Rue de Sauron","EXPLOIT":"ANGERS LOIRE METROPOLE","VERIF":"SDIS"}}
,{"type":"Feature","geometry":{"type":"Point","coordinates":[-0.664323042228288,47.550579886431,0]},"properties":{"GID":280,"NPOMPIER":"12","TYPE":"PI","DIAMETRE":"100","CONFORM":"O","ADRESSE":"Lieu dit Les Gats C.I.R.D.I.","COMMUNE":"LE PLESSIS MACE","DATEMES":"20060701000000","PRESSION":0,"DEBIT":73,"NOMVOIE":null,"EXPLOIT":"ANGERS LOIRE METROPOLE","VERIF":"SDIS"}}
,{"type":"Feature","geometry":{"type":"Point","coordinates":[-0.43888545909496,47.5199285206659]},"properties":{"GID":281,"NPOMPIER":"19","TYPE":"PI","DIAMETRE":"100","CONFORM":"O","ADRESSE":"Rue de la Bataillere Zone Artisanale","COMMUNE":"PELLOUAILLES LES VIGNES","DATEMES":"20060701000000","PRESSION":0,"DEBIT":70,"NOMVOIE":"Rue du Bicentenaire","EXPLOIT":"ANGERS LOIRE METROPOLE","VERIF":"SDIS"}}
,{"type":"Feature","geometry":{"type":"Point","coordinates":[-0.686455728244494,47.4236353425899]},"properties":{"GID":282,"NPOMPIER":"13","TYPE":"PI","DIAMETRE":"100","CONFORM":null,"ADRESSE":"La Bricauderie","COMMUNE":"SAVENNIERES","DATEMES":null,"PRESSION":0,"DEBIT":0,"NOMVOIE":"La Bricauderie","EXPLOIT":"ANGERS LOIRE METROPOLE","VERIF":"X"}}
,{"type":"Feature","geometry":{"type":"Point","coordinates":[-0.503312574472013,47.4501829233221]},"properties":{"GID":283,"NPOMPIER":"10","TYPE":"PI","DIAMETRE":"100","CONFORM":"O","ADRESSE":"Rue Auguste Chevrollier (square de l'enfance)","COMMUNE":"TRELAZE","DATEMES":"20110301000000","PRESSION":0,"DEBIT":129,"NOMVOIE":"Avenue de la République","EXPLOIT":"ANGERS LOIRE METROPOLE","VERIF":"SDIS"}}
,{"type":"Feature","geometry":{"type":"Point","coordinates":[-0.61091867541994,47.4565576700295,0]},"properties":{"GID":284,"NPOMPIER":"1060","TYPE":"PI","DIAMETRE":"100","CONFORM":"O","ADRESSE":"Allée Guillaume Cerisay","COMMUNE":"ANGERS","DATEMES":"20060630000000","PRESSION":0,"DEBIT":177,"NOMVOIE":"Allée Guillaume Cerisay","EXPLOIT":"ANGERS LOIRE METROPOLE","VERIF":"SDIS"}}
,{"type":"Feature","geometry":{"type":"Point","coordinates":[-0.479642551779414,47.4731043973887,0]},"properties":{"GID":285,"NPOMPIER":"119","TYPE":"PI","DIAMETRE":"100","CONFORM":"O","ADRESSE":"Chemin rural No 13 Ecole de Perfectionement","COMMUNE":"SAINT-BARTHELEMY D ANJOU","DATEMES":"20060630000000","PRESSION":0,"DEBIT":70,"NOMVOIE":"Les Buffeteries","EXPLOIT":"ANGERS LOIRE METROPOLE","VERIF":"SDIS"}}
,{"type":"Feature","geometry":{"type":"Point","coordinates":[-0.545451271542086,47.4851674149724,0]},"properties":{"GID":286,"NPOMPIER":"382","TYPE":"PI","DIAMETRE":"100","CONFORM":"O","ADRESSE":"Rue Vaucanson face rue Richard Lenoir","COMMUNE":"ANGERS","DATEMES":"20060630000000","PRESSION":0,"DEBIT":142,"NOMVOIE":"Rue Vaucanson","EXPLOIT":"ANGERS LOIRE METROPOLE","VERIF":"SDIS"}}
,{"type":"Feature","geometry":{"type":"Point","coordinates":[-0.476818513641831,47.5787195672902]},"properties":{"GID":287,"NPOMPIER":"12","TYPE":"PI","DIAMETRE":"100","CONFORM":"O","ADRESSE":"Angle route des Placelles et de la route des Davieres","COMMUNE":"BRIOLLAY","DATEMES":"20100101000000","PRESSION":3,"DEBIT":125,"NOMVOIE":"Route des Davières","EXPLOIT":"VEOLIA","VERIF":"ALM"}}
,{"type":"Feature","geometry":{"type":"Point","coordinates":[-0.52706506346449,47.4375517563018]},"properties":{"GID":289,"NPOMPIER":"29","TYPE":"PI","DIAMETRE":"100","CONFORM":"O","ADRESSE":"Avenue du Huit Mai Angle President Villette","COMMUNE":"LES PONTS DE CE","DATEMES":"20060630000000","PRESSION":0,"DEBIT":72,"NOMVOIE":"Avenue du Huit Mai","EXPLOIT":"ANGERS LOIRE METROPOLE","VERIF":"SDIS"}}
,{"type":"Feature","geometry":{"type":"Point","coordinates":[-0.56497282064637,47.4906503065822,0]},"properties":{"GID":290,"NPOMPIER":"340","TYPE":"PI","DIAMETRE":"100","CONFORM":"O","ADRESSE":"Rue du General Lize No 24","COMMUNE":"ANGERS","DATEMES":"20060630000000","PRESSION":0,"DEBIT":82,"NOMVOIE":"Rue du général Lizé","EXPLOIT":"ANGERS LOIRE METROPOLE","VERIF":"SDIS"}}
,{"type":"Feature","geometry":{"type":"Point","coordinates":[-0.611595688662029,47.4606356927626,0]},"properties":{"GID":291,"NPOMPIER":"1012","TYPE":"PI","DIAMETRE":"100","CONFORM":"O","ADRESSE":"Rue guillaume Barclay face Square Barclay","COMMUNE":"ANGERS","DATEMES":"20060630000000","PRESSION":0,"DEBIT":169,"NOMVOIE":"Rue Guillaume Barclay","EXPLOIT":"ANGERS LOIRE METROPOLE","VERIF":"SDIS"}}
,{"type":"Feature","geometry":{"type":"Point","coordinates":[-0.547364990604403,47.4825051195549,0]},"properties":{"GID":292,"NPOMPIER":"241","TYPE":"PI","DIAMETRE":"100","CONFORM":"O","ADRESSE":"Rue Joseph Nicolas Cugnot Ext Voie sans issue","COMMUNE":"ANGERS","DATEMES":"20060630000000","PRESSION":0,"DEBIT":103,"NOMVOIE":"Rue Nicolas Joseph Cugnot","EXPLOIT":"ANGERS LOIRE METROPOLE","VERIF":"SDIS"}}
,{"type":"Feature","geometry":{"type":"Point","coordinates":[-0.552002424014068,47.4754939644888]},"properties":{"GID":293,"NPOMPIER":"1027","TYPE":"PI","DIAMETRE":"100","CONFORM":"O","ADRESSE":"Rue du Port de l'Ancre angle rue Choudieu","COMMUNE":"ANGERS","DATEMES":"20060701000000","PRESSION":0,"DEBIT":101,"NOMVOIE":"Rue Choudieu","EXPLOIT":"ANGERS LOIRE METROPOLE","VERIF":"SDIS"}}
,{"type":"Feature","geometry":{"type":"Point","coordinates":[-0.529364853637627,47.4551643047153]},"properties":{"GID":294,"NPOMPIER":"512","TYPE":"PI","DIAMETRE":"100","CONFORM":"O","ADRESSE":"Rue Saumuroise face rue Eugene Delacroix","COMMUNE":"ANGERS","DATEMES":"20060630000000","PRESSION":0,"DEBIT":141,"NOMVOIE":"Rue Saumuroise","EXPLOIT":"ANGERS LOIRE METROPOLE","VERIF":"SDIS"}}
,{"type":"Feature","geometry":{"type":"Point","coordinates":[-0.54309105237837,47.4625216349902]},"properties":{"GID":295,"NPOMPIER":"1034","TYPE":"PI","DIAMETRE":"100","CONFORM":"O","ADRESSE":"Rue Volney face au n°65","COMMUNE":"ANGERS","DATEMES":"20060630000000","PRESSION":0,"DEBIT":64,"NOMVOIE":"Rue Volney","EXPLOIT":"ANGERS LOIRE METROPOLE","VERIF":"SDIS"}}
,{"type":"Feature","geometry":{"type":"Point","coordinates":[-0.589902532228768,47.5099552982106,0]},"properties":{"GID":296,"NPOMPIER":"161","TYPE":"PI","DIAMETRE":"100","CONFORM":"O","ADRESSE":"Avenue Pablo Néruda angle chemin de la Salette","COMMUNE":"AVRILLE","DATEMES":"20060701000000","PRESSION":0,"DEBIT":110,"NOMVOIE":"Avenue Pablo Neruda","EXPLOIT":"ANGERS LOIRE METROPOLE","VERIF":"SDIS"}}
,{"type":"Feature","geometry":{"type":"Point","coordinates":[-0.509349339309279,47.4495362695122]},"properties":{"GID":297,"NPOMPIER":"70","TYPE":"PI","DIAMETRE":"100","CONFORM":"O","ADRESSE":"Rue Leo Lagrange Entee Lotissement","COMMUNE":"TRELAZE","DATEMES":"20110301000000","PRESSION":0,"DEBIT":112,"NOMVOIE":"Square du Ruisseau","EXPLOIT":"ANGERS LOIRE METROPOLE","VERIF":"SDIS"}}
,{"type":"Feature","geometry":{"type":"Point","coordinates":[-0.627255703609162,47.4818339882041,0]},"properties":{"GID":298,"NPOMPIER":"23","TYPE":"PI","DIAMETRE":"100","CONFORM":"O","ADRESSE":"Lieu dit les Landes CD 106 route de St Clement","COMMUNE":"BEAUCOUZE","DATEMES":"20060701000000","PRESSION":0,"DEBIT":98,"NOMVOIE":"Les Landes","EXPLOIT":"ANGERS LOIRE METROPOLE","VERIF":"SDIS"}}
,{"type":"Feature","geometry":{"type":"Point","coordinates":[-0.551276541169315,47.4613321511274]},"properties":{"GID":299,"NPOMPIER":"688","TYPE":"PI","DIAMETRE":"100","CONFORM":"O","ADRESSE":"Rue du Clon No 11","COMMUNE":"ANGERS","DATEMES":"20060630000000","PRESSION":0,"DEBIT":104,"NOMVOIE":"Rue du Clon","EXPLOIT":"ANGERS LOIRE METROPOLE","VERIF":"SDIS"}}
,{"type":"Feature","geometry":{"type":"Point","coordinates":[-0.621321197380538,47.5376973751683,0]},"properties":{"GID":300,"NPOMPIER":"56","TYPE":"PI","DIAMETRE":"100","CONFORM":"O","ADRESSE":"Rue du Tertre, ldt du Tertre","COMMUNE":"MONTREUIL JUIGNE","DATEMES":"20060630000000","PRESSION":0,"DEBIT":100,"NOMVOIE":"Rue du Tertre","EXPLOIT":"ANGERS LOIRE METROPOLE","VERIF":"SDIS"}}
,{"type":"Feature","geometry":{"type":"Point","coordinates":[-0.604529614334886,47.5049892883201,0]},"properties":{"GID":301,"NPOMPIER":"43","TYPE":"PI","DIAMETRE":"100","CONFORM":"O","ADRESSE":"Avenue Salvator Allende","COMMUNE":"AVRILLE","DATEMES":"20060629000000","PRESSION":0,"DEBIT":135,"NOMVOIE":"Avenue Salvador Allende","EXPLOIT":"ANGERS LOIRE METROPOLE","VERIF":"SDIS"}}
,{"type":"Feature","geometry":{"type":"Point","coordinates":[-0.662546948418694,47.556835382238]},"properties":{"GID":302,"NPOMPIER":"18","TYPE":"PI","DIAMETRE":"100","CONFORM":"O","ADRESSE":"ZA de la Chevallerie","COMMUNE":"LA MEMBROLLE SUR LONGUENEE","DATEMES":"20060626000000","PRESSION":0,"DEBIT":80,"NOMVOIE":null,"EXPLOIT":"ANGERS LOIRE METROPOLE","VERIF":"SDIS"}}
,{"type":"Feature","geometry":{"type":"Point","coordinates":[-0.514568106767719,47.4868231167172]},"properties":{"GID":303,"NPOMPIER":"973","TYPE":"PI","DIAMETRE":"100","CONFORM":"O","ADRESSE":"Bd Monplaisir Parking angle V. Chatenay","COMMUNE":"ANGERS","DATEMES":"20060630000000","PRESSION":0,"DEBIT":108,"NOMVOIE":"Avenue Victor Châtenay","EXPLOIT":"ANGERS LOIRE METROPOLE","VERIF":"SDIS"}}
,{"type":"Feature","geometry":{"type":"Point","coordinates":[-0.494895298854728,47.4400983733095]},"properties":{"GID":304,"NPOMPIER":"94","TYPE":"PI","DIAMETRE":"100","CONFORM":"O","ADRESSE":"Rue Andre Leroy angle Rue de Buffon","COMMUNE":"TRELAZE","DATEMES":"20110301000000","PRESSION":null,"DEBIT":88,"NOMVOIE":"Rue André Leroy","EXPLOIT":"ANGERS LOIRE METROPOLE","VERIF":"SDIS"}}
,{"type":"Feature","geometry":{"type":"Point","coordinates":[-0.536391117663718,47.4677990707983]},"properties":{"GID":305,"NPOMPIER":"815","TYPE":"PI","DIAMETRE":"100","CONFORM":"O","ADRESSE":"Rue Louis Gain No 31 A G . face Batiments","COMMUNE":"ANGERS","DATEMES":"20060627000000","PRESSION":0,"DEBIT":102,"NOMVOIE":"Rue Louis Gain","EXPLOIT":"ANGERS LOIRE METROPOLE","VERIF":"SDIS"}}
,{"type":"Feature","geometry":{"type":"Point","coordinates":[-0.664932767762614,47.5148327274583,0]},"properties":{"GID":306,"NPOMPIER":"5","TYPE":"PI","DIAMETRE":"100","CONFORM":"O","ADRESSE":"Allée des Chataigniers angle cour des Acacias","COMMUNE":"LA MEIGNANNE","DATEMES":"20060701000000","PRESSION":0,"DEBIT":76,"NOMVOIE":"Allée des Châtaigniers","EXPLOIT":"ANGERS LOIRE METROPOLE","VERIF":"SDIS"}}
,{"type":"Feature","geometry":{"type":"Point","coordinates":[-0.583821961570277,47.4758584168729]},"properties":{"GID":307,"NPOMPIER":"64","TYPE":"PI","DIAMETRE":"100","CONFORM":"O","ADRESSE":"Av Notre Dame du Lac face No 2","COMMUNE":"ANGERS","DATEMES":"20120601000000","PRESSION":3.5,"DEBIT":94,"NOMVOIE":"Avenue Notre Dame du Lac","EXPLOIT":"ANGERS LOIRE METROPOLE","VERIF":"ALM"}}
,{"type":"Feature","geometry":{"type":"Point","coordinates":[-0.623711371662199,47.4195781236436]},"properties":{"GID":309,"NPOMPIER":"10","TYPE":"PI","DIAMETRE":"100","CONFORM":"O","ADRESSE":"Ldt la maison neuve chemin vicinal No 3","COMMUNE":"BOUCHEMAINE","DATEMES":"20060630000000","PRESSION":0,"DEBIT":79,"NOMVOIE":"La Maison Neuve","EXPLOIT":"ANGERS LOIRE METROPOLE","VERIF":"SDIS"}}
,{"type":"Feature","geometry":{"type":"Point","coordinates":[-0.622007605588513,47.4097383000792,0]},"properties":{"GID":310,"NPOMPIER":"43","TYPE":"PI","DIAMETRE":"100","CONFORM":"O","ADRESSE":"Chemin des Cavaliers face Ldt Bel Air","COMMUNE":"BOUCHEMAINE","DATEMES":"20060630000000","PRESSION":0,"DEBIT":103,"NOMVOIE":"La Rengeardière","EXPLOIT":"ANGERS LOIRE METROPOLE","VERIF":"SDIS"}}
,{"type":"Feature","geometry":{"type":"Point","coordinates":[-0.526066021277829,47.4233259751892,0]},"properties":{"GID":311,"NPOMPIER":"3","TYPE":"PI","DIAMETRE":"100","CONFORM":"O","ADRESSE":"Rue Boutreux Face rue des Dames","COMMUNE":"LES PONTS DE CE","DATEMES":"20060630000000","PRESSION":0,"DEBIT":102,"NOMVOIE":"Rue  Boutreux","EXPLOIT":"ANGERS LOIRE METROPOLE","VERIF":"SDIS"}}
,{"type":"Feature","geometry":{"type":"Point","coordinates":[-0.597251190245016,47.5086270510681,0]},"properties":{"GID":312,"NPOMPIER":"54","TYPE":"PI","DIAMETRE":"100","CONFORM":"O","ADRESSE":"Face no 17 avenue des Champs Blancs","COMMUNE":"AVRILLE","DATEMES":"20060629000000","PRESSION":0,"DEBIT":60,"NOMVOIE":"Avenue des Champs Blancs","EXPLOIT":"ANGERS LOIRE METROPOLE","VERIF":"SDIS"}}
,{"type":"Feature","geometry":{"type":"Point","coordinates":[-0.550663867251706,47.4769174454011]},"properties":{"GID":313,"NPOMPIER":"369","TYPE":"BI","DIAMETRE":"150","CONFORM":"O","ADRESSE":"Allee F Mitterand angle Residence Universitaire","COMMUNE":"ANGERS","DATEMES":"20060630000000","PRESSION":0,"DEBIT":271,"NOMVOIE":"Place François Mitterrand","EXPLOIT":"ANGERS LOIRE METROPOLE","VERIF":"SDIS"}}
,{"type":"Feature","geometry":{"type":"Point","coordinates":[-0.505702441725087,47.4682554476833,0]},"properties":{"GID":314,"NPOMPIER":"5","TYPE":"PI","DIAMETRE":"100","CONFORM":"O","ADRESSE":"Route d'Angers CD 61 Entree Vergers d Anjou","COMMUNE":"SAINT-BARTHELEMY D ANJOU","DATEMES":"20060701000000","PRESSION":0,"DEBIT":99,"NOMVOIE":"Route  Angers R.D. N°61","EXPLOIT":"ANGERS LOIRE METROPOLE","VERIF":"SDIS"}}
,{"type":"Feature","geometry":{"type":"Point","coordinates":[-0.51730718776279,47.4856598928978,0]},"properties":{"GID":315,"NPOMPIER":"893","TYPE":"PI","DIAMETRE":"100","CONFORM":"O","ADRESSE":"Rue du Petit Chemineau angle rue Guillaume Apollinaire","COMMUNE":"ANGERS","DATEMES":"20060630000000","PRESSION":0,"DEBIT":95,"NOMVOIE":"Rue Guillaume Apollinaire","EXPLOIT":"ANGERS LOIRE METROPOLE","VERIF":"SDIS"}}
,{"type":"Feature","geometry":{"type":"Point","coordinates":[-0.558291156871933,47.4764396373786,0]},"properties":{"GID":316,"NPOMPIER":"47","TYPE":"PI","DIAMETRE":"100","CONFORM":"O","ADRESSE":"Rue Godard Faultier Bd Arago","COMMUNE":"ANGERS","DATEMES":"20060630000000","PRESSION":0,"DEBIT":144,"NOMVOIE":"Rue Godard Faultrier","EXPLOIT":"ANGERS LOIRE METROPOLE","VERIF":"SDIS"}}
,{"type":"Feature","geometry":{"type":"Point","coordinates":[-0.705066905150567,47.4878993546974,0]},"properties":{"GID":317,"NPOMPIER":"28","TYPE":"PI","DIAMETRE":"100","CONFORM":"N","ADRESSE":"Les Trois Chenes (CD 105)","COMMUNE":"SAINT-LAMBERT LA POTHERIE","DATEMES":"20060701000000","PRESSION":0,"DEBIT":46,"NOMVOIE":"Les Trois Chênes","EXPLOIT":"ANGERS LOIRE METROPOLE","VERIF":"SDIS"}}
,{"type":"Feature","geometry":{"type":"Point","coordinates":[-0.557311931811771,47.4647184652958]},"properties":{"GID":318,"NPOMPIER":"662","TYPE":"BI","DIAMETRE":"100","CONFORM":"O","ADRESSE":"Place de la Gare Parking Droite face Entree","COMMUNE":"ANGERS","DATEMES":"20060630000000","PRESSION":0,"DEBIT":100,"NOMVOIE":"Esplanade de la Gare","EXPLOIT":"ANGERS LOIRE METROPOLE","VERIF":"SDIS"}}
,{"type":"Feature","geometry":{"type":"Point","coordinates":[-0.611564922258651,47.4194741907159]},"properties":{"GID":319,"NPOMPIER":"46","TYPE":"PI","DIAMETRE":"100","CONFORM":"O","ADRESSE":"Rue Chevriere face les petroles","COMMUNE":"BOUCHEMAINE","DATEMES":"20060630000000","PRESSION":0,"DEBIT":92,"NOMVOIE":"Rue  Chevrière","EXPLOIT":"ANGERS LOIRE METROPOLE","VERIF":"SDIS"}}
,{"type":"Feature","geometry":{"type":"Point","coordinates":[-0.60859971274778,47.5410989020036,0]},"properties":{"GID":320,"NPOMPIER":"52","TYPE":"PI","DIAMETRE":"100","CONFORM":"O","ADRESSE":"Rue Georges Sand angle rue Colonel Clair","COMMUNE":"MONTREUIL JUIGNE","DATEMES":"20060630000000","PRESSION":0,"DEBIT":93,"NOMVOIE":"Rue George Sand","EXPLOIT":"ANGERS LOIRE METROPOLE","VERIF":"SDIS"}}
,{"type":"Feature","geometry":{"type":"Point","coordinates":[-0.516599208201966,47.4824187014025,0]},"properties":{"GID":321,"NPOMPIER":"896","TYPE":"PI","DIAMETRE":"100","CONFORM":"O","ADRESSE":"Sq Eugene Brunclair Milieu du Sq face No 45","COMMUNE":"ANGERS","DATEMES":"20060701000000","PRESSION":0,"DEBIT":120,"NOMVOIE":null,"EXPLOIT":"ANGERS LOIRE METROPOLE","VERIF":"SDIS"}}
,{"type":"Feature","geometry":{"type":"Point","coordinates":[-0.504390865907798,47.4635296759052,0]},"properties":{"GID":322,"NPOMPIER":"103","TYPE":"PI","DIAMETRE":"100","CONFORM":"O","ADRESSE":"Rue Victor Hugo","COMMUNE":"SAINT-BARTHELEMY D ANJOU","DATEMES":"20060701000000","PRESSION":0,"DEBIT":102,"NOMVOIE":"Rue Victor Hugo","EXPLOIT":"ANGERS LOIRE METROPOLE","VERIF":"SDIS"}}
,{"type":"Feature","geometry":{"type":"Point","coordinates":[-0.485008072742662,47.5785290910258]},"properties":{"GID":483,"NPOMPIER":"3","TYPE":"PI","DIAMETRE":"100","CONFORM":"O","ADRESSE":"48, route de la Chansonniere, face chemin des Tricotiieres","COMMUNE":"BRIOLLAY","DATEMES":"20100101000000","PRESSION":4.19999980926514,"DEBIT":85,"NOMVOIE":"Route de la Chansonnière","EXPLOIT":"VEOLIA","VERIF":"ALM"}}
,{"type":"Feature","geometry":{"type":"Point","coordinates":[-0.526587058044207,47.4796909807203,0]},"properties":{"GID":484,"NPOMPIER":"588","TYPE":"PI","DIAMETRE":"100","CONFORM":"O","ADRESSE":"Av Pasteur angle rue Richard Duvernay","COMMUNE":"ANGERS","DATEMES":"20060701000000","PRESSION":0,"DEBIT":134,"NOMVOIE":"Avenue Pasteur","EXPLOIT":"ANGERS LOIRE METROPOLE","VERIF":"SDIS"}}
,{"type":"Feature","geometry":{"type":"Point","coordinates":[-0.70343774840481,47.4346525972802,0]},"properties":{"GID":485,"NPOMPIER":"5","TYPE":"PI","DIAMETRE":"100","CONFORM":"O","ADRESSE":"ZA Margas - face à la salle Barbara","COMMUNE":"SAINT-MARTIN DU FOUILLOUX","DATEMES":"20060626000000","PRESSION":0,"DEBIT":85,"NOMVOIE":"Village de la Perraudière","EXPLOIT":"ANGERS LOIRE METROPOLE","VERIF":"SDIS"}}
,{"type":"Feature","geometry":{"type":"Point","coordinates":[-0.575953475913889,47.503945910174,0]},"properties":{"GID":486,"NPOMPIER":"76","TYPE":"PI","DIAMETRE":"100","CONFORM":"O","ADRESSE":"Milieu de l avenue de la Violette","COMMUNE":"AVRILLE","DATEMES":"20060629000000","PRESSION":0,"DEBIT":88,"NOMVOIE":"Avenue de la Violette","EXPLOIT":"ANGERS LOIRE METROPOLE","VERIF":"SDIS"}}
,{"type":"Feature","geometry":{"type":"Point","coordinates":[-0.68106292698336,47.552725875532,0]},"properties":{"GID":487,"NPOMPIER":"7","TYPE":"PI","DIAMETRE":"100","CONFORM":"O","ADRESSE":"Avenue du Stade lieu-dit Travailtryon","COMMUNE":"LA MEMBROLLE SUR LONGUENEE","DATEMES":"20060626000000","PRESSION":0,"DEBIT":80,"NOMVOIE":"Avenue du Stade","EXPLOIT":"ANGERS LOIRE METROPOLE","VERIF":"SDIS"}}
,{"type":"Feature","geometry":{"type":"Point","coordinates":[-0.513806297891473,47.4977237963928,0]},"properties":{"GID":489,"NPOMPIER":"32","TYPE":"PI","DIAMETRE":"100","CONFORM":"N","ADRESSE":"Rue d'Eventard angle rue des Jockeys","COMMUNE":"ECOUFLANT","DATEMES":"20060701000000","PRESSION":0,"DEBIT":54,"NOMVOIE":"Rue d' Éventard","EXPLOIT":"ANGERS LOIRE METROPOLE","VERIF":"SDIS"}}
,{"type":"Feature","geometry":{"type":"Point","coordinates":[-0.507299081373526,47.4411557384886,0]},"properties":{"GID":491,"NPOMPIER":"134","TYPE":"PI","DIAMETRE":"100","CONFORM":"O","ADRESSE":"Face au 21 rue des Hortensias","COMMUNE":"LES PONTS DE CE","DATEMES":"20060702000000","PRESSION":3,"DEBIT":86,"NOMVOIE":"Rue des Hortensias","EXPLOIT":"ANGERS LOIRE METROPOLE","VERIF":"ALM"}}
,{"type":"Feature","geometry":{"type":"Point","coordinates":[-0.56305951436907,47.492736537204,0]},"properties":{"GID":492,"NPOMPIER":"323","TYPE":"PI","DIAMETRE":"100","CONFORM":"O","ADRESSE":"Entree du Camp des Nomades","COMMUNE":"ANGERS","DATEMES":"20060702000000","PRESSION":2.5,"DEBIT":68,"NOMVOIE":"Route d' Épinard","EXPLOIT":"ANGERS LOIRE METROPOLE","VERIF":"ALM"}}
,{"type":"Feature","geometry":{"type":"Point","coordinates":[-0.658875656841963,47.3841482353257]},"properties":{"GID":493,"NPOMPIER":"5","TYPE":"PI","DIAMETRE":"100","CONFORM":"O","ADRESSE":"Angle chemin des Perrieres","COMMUNE":"SAVENNIERES","DATEMES":"20060701000000","PRESSION":0,"DEBIT":120,"NOMVOIE":"Rue  Monsallier","EXPLOIT":"ANGERS LOIRE METROPOLE","VERIF":"SDIS"}}
,{"type":"Feature","geometry":{"type":"Point","coordinates":[-0.525265285768664,47.3857829084109]},"properties":{"GID":494,"NPOMPIER":"5","TYPE":"PI","DIAMETRE":"80","CONFORM":"O","ADRESSE":"Lieu dit Rochambeau","COMMUNE":"SOULAINES SUR AUBANCE","DATEMES":"20110401000000","PRESSION":5.69999980926514,"DEBIT":36,"NOMVOIE":"Rochambeau ","EXPLOIT":"VEOLIA","VERIF":null}}
,{"type":"Feature","geometry":{"type":"Point","coordinates":[-0.535499017060308,47.4702288568226]},"properties":{"GID":495,"NPOMPIER":"454","TYPE":"PI","DIAMETRE":"100","CONFORM":"O","ADRESSE":"Av Montaigne No 32","COMMUNE":"ANGERS","DATEMES":"20060630000000","PRESSION":0,"DEBIT":97,"NOMVOIE":"Avenue Montaigne","EXPLOIT":"ANGERS LOIRE METROPOLE","VERIF":"SDIS"}}
,{"type":"Feature","geometry":{"type":"Point","coordinates":[-0.628168253651418,47.4741521064217]},"properties":{"GID":496,"NPOMPIER":"16","TYPE":"PI","DIAMETRE":"100","CONFORM":"O","ADRESSE":"Rue du Bourg de Paille angle rue des Hirondelles","COMMUNE":"BEAUCOUZE","DATEMES":"20060701000000","PRESSION":0,"DEBIT":132,"NOMVOIE":"Rue du Bourg de Paille","EXPLOIT":"ANGERS LOIRE METROPOLE","VERIF":"SDIS"}}
,{"type":"Feature","geometry":{"type":"Point","coordinates":[-0.496385571791228,47.4518645768446]},"properties":{"GID":497,"NPOMPIER":"18","TYPE":"PI","DIAMETRE":"100","CONFORM":"O","ADRESSE":"Rue du Champ Robert Angle rue Elysee Reclus","COMMUNE":"TRELAZE","DATEMES":"20110301000000","PRESSION":0,"DEBIT":71,"NOMVOIE":"Rue Élisée Reclus","EXPLOIT":"ANGERS LOIRE METROPOLE","VERIF":"SDIS"}}
,{"type":"Feature","geometry":{"type":"Point","coordinates":[-0.527417661440906,47.4549292151303]},"properties":{"GID":498,"NPOMPIER":"513","TYPE":"PI","DIAMETRE":"100","CONFORM":"O","ADRESSE":"Rue Cezanne angle rue Manet","COMMUNE":"ANGERS","DATEMES":"20060630000000","PRESSION":0,"DEBIT":120,"NOMVOIE":"Rue Cézanne","EXPLOIT":"ANGERS LOIRE METROPOLE","VERIF":"SDIS"}}
,{"type":"Feature","geometry":{"type":"Point","coordinates":[-0.620451802932116,47.4996388544695,0]},"properties":{"GID":499,"NPOMPIER":"91","TYPE":"PI","DIAMETRE":"100","CONFORM":"O","ADRESSE":"RD No 122 angle RD No106","COMMUNE":"AVRILLE","DATEMES":"20060629000000","PRESSION":0,"DEBIT":184,"NOMVOIE":"La Boissière","EXPLOIT":"ANGERS LOIRE METROPOLE","VERIF":"SDIS"}}
,{"type":"Feature","geometry":{"type":"Point","coordinates":[-0.566621880723854,47.4777946415381,0]},"properties":{"GID":500,"NPOMPIER":"10","TYPE":"PI","DIAMETRE":"100","CONFORM":"O","ADRESSE":"Rue des Forces Françaises de l'intérieur","COMMUNE":"ANGERS","DATEMES":"20060701000000","PRESSION":0,"DEBIT":141,"NOMVOIE":null,"EXPLOIT":"ANGERS LOIRE METROPOLE","VERIF":"SDIS"}}
,{"type":"Feature","geometry":{"type":"Point","coordinates":[-0.474045637714737,47.5139421634524,0]},"properties":{"GID":501,"NPOMPIER":"98","TYPE":"PI","DIAMETRE":"100","CONFORM":"O","ADRESSE":"Avenue de la Millardière - entrée Super U","COMMUNE":"SAINT-SYLVAIN D ANJOU","DATEMES":"20060630000000","PRESSION":0,"DEBIT":166,"NOMVOIE":"Avenue de la Millardière","EXPLOIT":"ANGERS LOIRE METROPOLE","VERIF":"SDIS"}}
,{"type":"Feature","geometry":{"type":"Point","coordinates":[-0.677877265635045,47.4832209512098,0]},"properties":{"GID":503,"NPOMPIER":"1","TYPE":"PI","DIAMETRE":"100","CONFORM":"O","ADRESSE":"Place de l'Eglise","COMMUNE":"SAINT-LAMBERT LA POTHERIE","DATEMES":"20060701000000","PRESSION":4,"DEBIT":112,"NOMVOIE":"Rue de l' Aubriaie","EXPLOIT":"ANGERS LOIRE METROPOLE","VERIF":"ALM"}}
,{"type":"Feature","geometry":{"type":"Point","coordinates":[-0.643862133172911,47.3802915088034]},"properties":{"GID":504,"NPOMPIER":"2","TYPE":"PI","DIAMETRE":"100","CONFORM":"N","ADRESSE":"Parking eglise cote restaurant","COMMUNE":"BEHUARD","DATEMES":"20060701000000","PRESSION":0,"DEBIT":49,"NOMVOIE":"Rue de la Prairie","EXPLOIT":"ANGERS LOIRE METROPOLE","VERIF":"SDIS"}}
,{"type":"Feature","geometry":{"type":"Point","coordinates":[-0.554640424443987,47.4725817010944]},"properties":{"GID":505,"NPOMPIER":"73","TYPE":"PI","DIAMETRE":"100","CONFORM":"O","ADRESSE":"Rue Plantagenet angle rue Bodinier","COMMUNE":"ANGERS","DATEMES":"20060701000000","PRESSION":0,"DEBIT":136,"NOMVOIE":"Rue Plantagenêt","EXPLOIT":"ANGERS LOIRE METROPOLE","VERIF":"SDIS"}}
,{"type":"Feature","geometry":{"type":"Point","coordinates":[-0.565508412132572,47.4519498806612]},"properties":{"GID":211,"NPOMPIER":"745","TYPE":"PI","DIAMETRE":"100","CONFORM":"O","ADRESSE":"Rue Martin Luther King prox. rue Marechal Juin","COMMUNE":"ANGERS","DATEMES":"20060630000000","PRESSION":0,"DEBIT":69,"NOMVOIE":"Rue Martin Luther King","EXPLOIT":"ANGERS LOIRE METROPOLE","VERIF":"SDIS"}}
,{"type":"Feature","geometry":{"type":"Point","coordinates":[-0.571230950634875,47.5403293153663,0]},"properties":{"GID":212,"NPOMPIER":"9","TYPE":"PI","DIAMETRE":"100","CONFORM":"O","ADRESSE":"Angle CD 191- chemin de la Croix","COMMUNE":"CANTENAY-EPINARD","DATEMES":"20060701000000","PRESSION":0,"DEBIT":61,"NOMVOIE":"Chemin de Bellevue","EXPLOIT":"ANGERS LOIRE METROPOLE","VERIF":"SDIS"}}
,{"type":"Feature","geometry":{"type":"Point","coordinates":[-0.519768518945715,47.4819368717081,0]},"properties":{"GID":213,"NPOMPIER":"817","TYPE":"PI","DIAMETRE":"100","CONFORM":"O","ADRESSE":"Rue des Ormeaux prox Transformateur","COMMUNE":"ANGERS","DATEMES":"20060701000000","PRESSION":0,"DEBIT":81,"NOMVOIE":"Rue des Ormeaux","EXPLOIT":"ANGERS LOIRE METROPOLE","VERIF":"SDIS"}}
,{"type":"Feature","geometry":{"type":"Point","coordinates":[-0.549676371601235,47.4631212399425]},"properties":{"GID":214,"NPOMPIER":"666","TYPE":"PI","DIAMETRE":"100","CONFORM":"O","ADRESSE":"Rue de Brissac face rue du Colonel Panaget","COMMUNE":"ANGERS","DATEMES":"20060630000000","PRESSION":0,"DEBIT":115,"NOMVOIE":"Rue de Brissac","EXPLOIT":"ANGERS LOIRE METROPOLE","VERIF":"SDIS"}}
,{"type":"Feature","geometry":{"type":"Point","coordinates":[-0.458649749863886,47.5251091715283]},"properties":{"GID":217,"NPOMPIER":"99","TYPE":"PI","DIAMETRE":"100","CONFORM":"O","ADRESSE":"Complexe sportif","COMMUNE":"SAINT-SYLVAIN D ANJOU","DATEMES":"20080329000000","PRESSION":5.2,"DEBIT":74,"NOMVOIE":"Le Brossay","EXPLOIT":"ANGERS LOIRE METROPOLE","VERIF":"ALM"}}
,{"type":"Feature","geometry":{"type":"Point","coordinates":[-0.541376162393331,47.4853046906708,0]},"properties":{"GID":218,"NPOMPIER":"384","TYPE":"PI","DIAMETRE":"100","CONFORM":"O","ADRESSE":"Bd du Doyenne entree M.I.N 2eme acces","COMMUNE":"ANGERS","DATEMES":"20060630000000","PRESSION":0,"DEBIT":143,"NOMVOIE":"Avenue Jean Joxé","EXPLOIT":"ANGERS LOIRE METROPOLE","VERIF":"SDIS"}}
,{"type":"Feature","geometry":{"type":"Point","coordinates":[-0.667115556568658,47.4625485474522,0]},"properties":{"GID":219,"NPOMPIER":"27","TYPE":"PI","DIAMETRE":"100","CONFORM":"O","ADRESSE":"Chemin des Robinieres Rue des Ormeaux","COMMUNE":"SAINT-JEAN DE LINIERES","DATEMES":"20060701000000","PRESSION":0,"DEBIT":122,"NOMVOIE":"Rue des Ormeaux","EXPLOIT":"ANGERS LOIRE METROPOLE","VERIF":"SDIS"}}
,{"type":"Feature","geometry":{"type":"Point","coordinates":[-0.596386638516533,47.4733591140414]},